{"version": 0.6, "generator": "Overpass API 0.7.61.5 4133829e", "osm3s": {"timestamp_osm_base": "2024-02-25T09:34:44Z", "copyright": "The data included in this document is from www.openstreetmap.org. The data is made available under ODbL."}, "elements": [{"type": "node", "id": 4718913889, "lat": 26.6726174, "lon": 80.9795848, "tags": {"amenity": "bank", "name:en": "PNB"}}, {"type": "node", "id": 4727513800, "lat": 26.7938601, "lon": 80.9130086, "tags": {"amenity": "bank", "brand:wikidata": "Q2003611", "name": "Indian Overseas Bank", "name:en": "Indian Overseas Bank", "short_name": "IOB", "website": "https://www.iob.in"}}, {"type": "node", "id": 4727513801, "lat": 26.7921199, "lon": 80.9199123, "tags": {"amenity": "bank", "brand:wikidata": "Q1340361", "name": "State Bank of India", "short_name": "SBI", "website": "https://www.sbi.co.in"}}, {"type": "node", "id": 4727514579, "lat": 26.7905004, "lon": 80.9252067, "tags": {"amenity": "fuel"}}, {"type": "node", "id": 6054793502, "lat": 26.7785778, "lon": 80.9487916}, {"type": "node", "id": 6054793503, "lat": 26.7784152, "lon": 80.9487553}, {"type": "node", "id": 6054793504, "lat": 26.7782787, "lon": 80.9495223}, {"type": "node", "id": 6054793505, "lat": 26.7785757, "lon": 80.9495887}, {"type": "node", "id": 6054793506, "lat": 26.7787056, "lon": 80.9488584}, {"type": "node", "id": 6054793507, "lat": 26.7785712, "lon": 80.9488284}, {"type": "node", "id": 7031157738, "lat": 26.7821711, "lon": 80.9423183}, {"type": "node", "id": 7031157739, "lat": 26.7820789, "lon": 80.9423357}, {"type": "node", "id": 7031157740, "lat": 26.7820506, "lon": 80.942148}, {"type": "node", "id": 7031157741, "lat": 26.7821428, "lon": 80.9421305}, {"type": "node", "id": 8860869101, "lat": 26.7750226, "lon": 80.9480666}, {"type": "node", "id": 8860869102, "lat": 26.7754632, "lon": 80.948706}, {"type": "node", "id": 8860869103, "lat": 26.7750418, "lon": 80.9490966}, {"type": "node", "id": 8860869104, "lat": 26.7745724, "lon": 80.9487399}, {"type": "node", "id": 8860869105, "lat": 26.7770303, "lon": 80.9510192}, {"type": "node", "id": 8860869106, "lat": 26.7771912, "lon": 80.9512423}, {"type": "node", "id": 8860869107, "lat": 26.7767467, "lon": 80.9515985}, {"type": "node", "id": 8860869108, "lat": 26.7766012, "lon": 80.9513325}, {"type": "node", "id": 8860869113, "lat": 26.7762813, "lon": 80.9432049, "tags": {"amenity": "bank", "brand": "Allahabad Bank", "brand:wikidata": "Q2018840", "brand:wikipedia": "en:Allahabad Bank", "name": "Allahabad Bank  Sainik Nagar Branch"}}, {"type": "node", "id": 10891469611, "lat": 26.8175419, "lon": 80.8934201, "tags": {"amenity": "bank", "brand": "State Bank of India", "brand:wikidata": "Q1340361", "name": "State Bank of India", "short_name": "SBI"}}, {"type": "node", "id": 10899849036, "lat": 26.7990009, "lon": 80.9140059, "tags": {"amenity": "fuel", "brand": "Bharat Petroleum", "brand:wikidata": "Q854826", "fuel:diesel": "yes", "fuel:petroleum": "yes", "name": "Bharat Petroleum"}}, {"type": "node", "id": 10899869144, "lat": 26.7873466, "lon": 80.9120308, "tags": {"amenity": "fuel", "brand": "Indian Oil Petrol Pump", "brand:wikidata": "Q1289348", "fuel:diesel": "yes", "fuel:petrol": "yes", "name": "Indian Oil Petrol Pump"}}, {"type": "node", "id": 10959917781, "lat": 26.7812179, "lon": 80.989609, "tags": {"amenity": "bank", "brand": "State Bank of India", "brand:wikidata": "Q1340361", "name": "State Bank of India", "operator": "State Bank of India", "short_name": "SBI"}}, {"type": "node", "id": 11155507044, "lat": 26.6649343, "lon": 80.9876326, "tags": {"amenity": "bank", "name": "Bank of India RSETI Lucknow"}}, {"type": "way", "id": 643384994, "nodes": [6054793502, 6054793503, 6054793504, 6054793505, 6054793506, 6054793507, 6054793502], "tags": {"building": "retail"}}, {"type": "way", "id": 752205207, "nodes": [7031157741, 7031157738, 7031157739, 7031157740, 7031157741], "tags": {"addr:housenumber": "587/79 GHA", "addr:street": "Mahatma Gandhi Marg", "building": "retail"}}, {"type": "way", "id": 957615706, "nodes": [8860869101, 8860869102, 8860869103, 8860869104, 8860869101], "tags": {"amenity": "fuel", "brand": "Bharat Petroleum", "brand:wikidata": "Q854826", "brand:wikipedia": "en:Bharat Petroleum", "name": "Bharat Petroleum"}}, {"type": "way", "id": 957615707, "nodes": [8860869105, 8860869106, 8860869107, 8860869108, 8860869105], "tags": {"amenity": "fuel", "fuel:biogas": "yes", "name": "Green Gas Station", "opening_hours": "24/7"}}]}