{"version": 0.6, "generator": "Overpass API 0.7.61.5 4133829e", "osm3s": {"timestamp_osm_base": "2024-02-25T09:23:29Z", "copyright": "The data included in this document is from www.openstreetmap.org. The data is made available under ODbL."}, "elements": [{"type": "node", "id": 4437535074, "lat": 21.3415007, "lon": 79.3690198, "tags": {"amenity": "bar", "level": "0", "name": "Raj Lakshmi Bar"}}, {"type": "node", "id": 6225366726, "lat": 21.2144283, "lon": 79.194375, "tags": {"amenity": "bar", "name": "Jai Ambe Restaurant and Bar"}}, {"type": "node", "id": 6225366730, "lat": 21.2132705, "lon": 79.1972007, "tags": {"amenity": "bar", "name": "Sunil Bar and Restaurant"}}, {"type": "node", "id": 6249379301, "lat": 21.1475044, "lon": 79.4083361, "tags": {"amenity": "bar", "name": "Ashoka Family Restaurant and Bar"}}, {"type": "node", "id": 6249379302, "lat": 21.1476307, "lon": 79.409063, "tags": {"amenity": "bar", "name": "Shiom Bar and Restaurant"}}, {"type": "node", "id": 10960922639, "lat": 21.2745822, "lon": 79.3780444, "tags": {"amenity": "cafe"}}, {"type": "node", "id": 10960922640, "lat": 21.2756063, "lon": 79.3780678, "tags": {"amenity": "cafe"}}, {"type": "node", "id": 10960956876, "lat": 21.2653904, "lon": 79.4048334, "tags": {"amenity": "cafe"}}, {"type": "node", "id": 10960987657, "lat": 21.260592, "lon": 79.4129555, "tags": {"amenity": "cafe", "name": "cafe"}}, {"type": "node", "id": 10960987660, "lat": 21.2604627, "lon": 79.4127794, "tags": {"amenity": "cafe", "name": "cafe"}}, {"type": "node", "id": 10960987673, "lat": 21.2987571, "lon": 79.3736755, "tags": {"amenity": "cafe"}}]}