{"version": 0.6, "generator": "Overpass API 0.7.61.5 4133829e", "osm3s": {"timestamp_osm_base": "2024-02-25T09:10:11Z", "copyright": "The data included in this document is from www.openstreetmap.org. The data is made available under ODbL."}, "elements": [{"type": "node", "id": 713294758, "lat": 23.1276285, "lon": 72.053493, "tags": {"internet_access": "no", "name": "Viramgam Junction", "network": "IR", "operator": "WR", "public_transport": "station", "railway": "station", "ref": "VG", "train": "yes", "wikidata": "Q17100202", "wikipedia": "en:Viramgam railway station"}}, {"type": "node", "id": 2068422196, "lat": 23.5032966, "lon": 72.0465559, "tags": {"internet_access": "no", "name": "Bechraji", "network": "IR", "operator": "WR", "public_transport": "station", "railway": "station", "ref": "BHRJ", "train": "yes", "wikidata": "Q63355864"}}, {"type": "node", "id": 2068743668, "lat": 23.1607179, "lon": 71.9341583, "tags": {"internet_access": "no", "name": "Jhund Junction", "network": "IR", "operator": "WR", "public_transport": "station", "railway": "station", "ref": "JN", "train": "yes", "wikidata": "Q63355376"}}, {"type": "node", "id": 4454478189, "lat": 23.1270255, "lon": 72.0511173, "tags": {"amenity": "bus_station", "name": "Viramgam", "name:en": "Viramgam", "name:hi": "\u0ab5\u0abf\u0ab0\u0aae \u0a97\u0abe\u0aae"}}, {"type": "node", "id": 6571849177, "lat": 23.1974863, "lon": 72.0985192, "tags": {"internet_access": "no", "name": "Jaksi", "network": "IR", "operator": "WR", "public_transport": "station", "railway": "station", "ref": "JKS", "train": "yes", "wikidata": "Q31297154"}}, {"type": "node", "id": 6571860282, "lat": 23.2704312, "lon": 72.128399, "tags": {"internet_access": "no", "name": "Bhankoda", "network": "IR", "operator": "WR", "public_transport": "station", "railway": "station", "ref": "BKD", "train": "yes", "wikidata": "Q25549312"}}, {"type": "node", "id": 6571867204, "lat": 23.304982, "lon": 72.154792, "tags": {"internet_access": "no", "name": "Kanjh", "network": "IR", "operator": "WR", "public_transport": "station", "railway": "station", "ref": "KNU", "train": "yes", "wikidata": "Q63369181"}}]}