{"version": 0.6, "generator": "Overpass API 0.7.61.5 4133829e", "osm3s": {"timestamp_osm_base": "2024-02-25T09:46:55Z", "copyright": "The data included in this document is from www.openstreetmap.org. The data is made available under ODbL."}, "elements": [{"type": "node", "id": 4547443698, "lat": 26.9483121, "lon": 75.8404444, "tags": {"amenity": "cafe", "cuisine": "indian", "internet_access": "wlan", "name:en": "Rainbow Restaurant"}}, {"type": "node", "id": 5033546322, "lat": 26.8149712, "lon": 75.8628121, "tags": {"addr:postcode": "302017", "amenity": "cafe", "name:en": "chai ki thadi"}}, {"type": "node", "id": 5033618123, "lat": 26.8131969, "lon": 75.8640629, "tags": {"addr:housenumber": "plot no 112", "addr:postcode": "302017", "amenity": "fast_food", "name:en": "gulmohar park-1,plot no 112,jagatpur,jaipur,302017"}}, {"type": "node", "id": 5240550722, "lat": 26.9857405, "lon": 75.8542783, "tags": {"amenity": "cafe", "name:en": "The Stag Rooftop Cafe & Lounge"}}, {"type": "node", "id": 6062908585, "lat": 26.9871861, "lon": 75.8545361, "tags": {"amenity": "cafe", "name:en": "Kokum Bistro"}}, {"type": "node", "id": 6255764985, "lat": 26.9865438, "lon": 75.8502464, "tags": {"amenity": "cafe", "name:en": "Caf\u00e9 coffee day"}}, {"type": "node", "id": 6728959764, "lat": 26.9347868, "lon": 75.9233302, "tags": {"addr:city": "Jaipur", "addr:housenumber": "Amul Cafe", "addr:postcode": "302031", "addr:street": "LNM Institute of Information Technology", "amenity": "cafe", "cuisine": "coffee_shop;pizza;burger;sandwich;indian", "delivery": "yes", "internet_access": "yes", "internet_access:fee": "no", "name": "Amul Cafe", "outdoor_seating": "yes", "payment:cash": "yes", "payment:contactless": "yes"}}, {"type": "node", "id": 7082196469, "lat": 26.8473215, "lon": 75.8602951}, {"type": "node", "id": 7082196470, "lat": 26.847207, "lon": 75.8603031}, {"type": "node", "id": 7082196471, "lat": 26.8472005, "lon": 75.8601862}, {"type": "node", "id": 7082196472, "lat": 26.8471061, "lon": 75.8601928}, {"type": "node", "id": 7082196473, "lat": 26.8471184, "lon": 75.8604154}, {"type": "node", "id": 7082196474, "lat": 26.8473274, "lon": 75.8604009}, {"type": "node", "id": 7082196475, "lat": 26.8472082, "lon": 75.8599888}, {"type": "node", "id": 7082196476, "lat": 26.847211, "lon": 75.8601303}, {"type": "node", "id": 7082196477, "lat": 26.8471018, "lon": 75.860133}, {"type": "node", "id": 7082196478, "lat": 26.847099, "lon": 75.8599915}, {"type": "node", "id": 8125607613, "lat": 26.9031, "lon": 75.8365725, "tags": {"amenity": "cafe", "brand": "Cafe Coffee Day", "brand:wikidata": "Q5017235", "brand:wikipedia": "en:Caf\u00e9 Coffee Day", "cuisine": "coffee_shop", "name": "Cafe Coffee Day", "takeaway": "yes"}}, {"type": "node", "id": 8125618821, "lat": 26.9031105, "lon": 75.8366548, "tags": {"amenity": "fast_food", "cuisine": "juice", "name": "Juicy Fruity"}}, {"type": "node", "id": 8125618822, "lat": 26.903362, "lon": 75.8368928, "tags": {"amenity": "food_court", "name": "The Food Court"}}, {"type": "node", "id": 8125618824, "lat": 26.9033096, "lon": 75.8368752, "tags": {"amenity": "fast_food", "brand": "Domino's", "brand:ks": "\u0688\u0648\u0645\u06cc\u0646\u0648\u0632", "brand:pa": "\u0a21\u0a4b\u0a2e\u0a40\u0a28\u0a4b\u0a1c\u0a3c", "brand:ur": "\u0688\u0648\u0645\u06cc\u0646\u0648\u0632", "brand:wikidata": "Q839466", "brand:wikipedia": "en:Domino's Pizza", "cuisine": "pizza", "name": "Domino's", "name:ks": "\u0688\u0648\u0645\u06cc\u0646\u0648\u0632", "name:pa": "\u0a21\u0a4b\u0a2e\u0a40\u0a28\u0a4b\u0a1c\u0a3c", "name:ur": "\u0688\u0648\u0645\u06cc\u0646\u0648\u0632", "takeaway": "yes"}}, {"type": "node", "id": 8125618825, "lat": 26.9033299, "lon": 75.836829, "tags": {"amenity": "fast_food", "name": "American Grill"}}, {"type": "node", "id": 8887611105, "lat": 26.8465067, "lon": 75.8940019, "tags": {"addr:city": "jaipur", "addr:postcode": "302017", "amenity": "cafe", "internet_access": "no", "name": "bablu tea stall", "opening_hours:covid19": "off", "outdoor_seating": "yes"}}, {"type": "node", "id": 8887645034, "lat": 26.8414227, "lon": 75.8922946, "tags": {"addr:city": "jaipur", "addr:postcode": "302017", "amenity": "cafe", "internet_access": "no", "name": "omji tea stole", "opening_hours:covid19": "off"}}, {"type": "node", "id": 8887995501, "lat": 26.8413945, "lon": 75.8919855, "tags": {"amenity": "cafe", "name": "braj tea stall"}}, {"type": "node", "id": 8900651448, "lat": 26.8358975, "lon": 75.8769066, "tags": {"amenity": "cafe", "name": "banavari thadi"}}, {"type": "node", "id": 10718511277, "lat": 26.8375444, "lon": 75.8337353, "tags": {"addr:city": "Jaipur", "addr:postcode": "302017", "addr:street": "Jagatpura Flyover", "amenity": "fast_food", "brand": "Domino's", "brand:wikidata": "Q839466", "cuisine": "pizza", "drive_through": "yes", "name": "Domino's", "takeaway": "yes"}}, {"type": "node", "id": 10744673403, "lat": 26.9854069, "lon": 75.8495623, "tags": {"amenity": "cafe", "name": "Caf\u00e9 coffee day"}}, {"type": "node", "id": 10904677030, "lat": 26.8232047, "lon": 75.867953, "tags": {"amenity": "fast_food", "name": "Unique Bakers"}}, {"type": "node", "id": 10904677031, "lat": 26.8226139, "lon": 75.8647334, "tags": {"amenity": "fast_food", "name": "Arora Bakers"}}, {"type": "node", "id": 10904677035, "lat": 26.8277721, "lon": 75.8477985, "tags": {"addr:city": "jaipur", "addr:street": "Ram Nagariya Road", "amenity": "fast_food", "cuisine": "regional;burger;coffee_shop;pizza;sandwich;indian", "diet:vegetarian": "yes", "name": "Dream Cafe"}}, {"type": "node", "id": 10904677040, "lat": 26.8372637, "lon": 75.8339069, "tags": {"amenity": "fast_food", "brand": "Burger King", "brand:wikidata": "Q177054", "cuisine": "burger", "name": "Burger King", "takeaway": "yes"}}, {"type": "node", "id": 10904677048, "lat": 26.8302623, "lon": 75.8495723, "tags": {"addr:street": "C-96A, Road No 7, CBI Fatak Road, Chandragupta Nagar, Jagatpura, Jaipur, Rajasthan 302017", "amenity": "cafe", "cuisine": "coffee_shop", "name": "Chai Aashram"}}, {"type": "node", "id": 10904687646, "lat": 26.8282916, "lon": 75.844543, "tags": {"addr:street": "Purshat Nagar, Jagatpura Near Tata Motors, Khatu Shyam Ji Mandir, Jaipur, Rajasthan 302017", "amenity": "cafe", "cuisine": "burger;coffee_shop", "name": "Let's Brew Coffee"}}, {"type": "node", "id": 10904687647, "lat": 26.8283365, "lon": 75.8445068, "tags": {"addr:street": "Purshat Nagar, Jagatpura Near Tata Motors, Khatu Shyam Ji Mandir, Jaipur, Rajasthan 302017", "amenity": "cafe", "cuisine": "coffee_shop", "name": "Garrison cafe"}}, {"type": "way", "id": 758347908, "nodes": [7082196469, 7082196470, 7082196471, 7082196472, 7082196473, 7082196474, 7082196469], "tags": {"amenity": "cafe", "building": "yes", "name": "Hide out cafe", "outdoor_seating": "yes"}}, {"type": "way", "id": 758347909, "nodes": [7082196475, 7082196476, 7082196477, 7082196478, 7082196475], "tags": {"amenity": "fast_food", "building": "yes"}}]}