{"version": 0.6, "generator": "Overpass API 0.7.61.5 4133829e", "osm3s": {"timestamp_osm_base": "2024-02-25T09:11:15Z", "copyright": "The data included in this document is from www.openstreetmap.org. The data is made available under ODbL."}, "elements": [{"type": "node", "id": 1234844162, "lat": 23.156471, "lon": 72.5531143, "tags": {"amenity": "fuel", "cmt": "24-JAN-10 14:07:22", "description": "24-JAN-10 14:07:22", "ele": "62.851440", "name": "Fuel", "source": "GPS", "sym": "Gas Station"}}, {"type": "node", "id": 1234844704, "lat": 23.1768017, "lon": 72.5737935, "tags": {"amenity": "fuel", "brand": "Hindustan Petroleum", "cmt": "25-JAN-10 18:11:51", "ele": "64.774048", "fuel:gasoline": "yes", "name": "Hindustan Petroleum", "not:brand:wikidata": "Q1619375", "operator": "Hindustan Petroleum", "source": "GPS", "sym": "Gas Station"}}, {"type": "node", "id": 1234844705, "lat": 23.211777, "lon": 72.5280508, "tags": {"amenity": "fuel", "cmt": "25-JAN-10 18:03:35", "description": "25-JAN-10 18:03:35", "ele": "76.07", "name": "Fuel", "name:en": "Petrol pump sertha road", "source": "GPS", "sym": "Gas Station"}}, {"type": "node", "id": 4210120722, "lat": 23.1806904, "lon": 72.6386269, "tags": {"amenity": "car_wash", "name": "Neelkanth Auto"}}, {"type": "node", "id": 4292039994, "lat": 23.2289983, "lon": 72.5054582, "tags": {"addr:street": "sh 41", "amenity": "fuel", "name": "Bharat petroleum"}}, {"type": "node", "id": 4368033415, "lat": 23.2408849, "lon": 72.5029461, "tags": {"amenity": "bank", "atm": "yes", "brand:wikidata": "Q1340361", "brand:wikipedia": "en:State Bank of India", "name": "State Bank of India", "operator": "Kalol", "short_name": "SBI"}}, {"type": "node", "id": 4476395495, "lat": 23.210959, "lon": 72.5295505, "tags": {"amenity": "fuel", "name": "CNG gas only", "name:en": "CNG gas only"}}, {"type": "node", "id": 4513776253, "lat": 23.1639494, "lon": 72.5389431}, {"type": "node", "id": 4513776254, "lat": 23.1643141, "lon": 72.5395364}, {"type": "node", "id": 4513776255, "lat": 23.1639823, "lon": 72.5397777}, {"type": "node", "id": 4513776256, "lat": 23.1636135, "lon": 72.5391874}, {"type": "node", "id": 4991766821, "lat": 23.2395685, "lon": 72.5018883, "tags": {"addr:street": "Angdi circle Fingure circle", "amenity": "bank", "name": "Icici bank", "name:en": "Icici bank"}}, {"type": "node", "id": 5144578206, "lat": 23.1638921, "lon": 72.5391735}, {"type": "node", "id": 5144578207, "lat": 23.1639101, "lon": 72.5396602}, {"type": "node", "id": 5144578208, "lat": 23.1640972, "lon": 72.5395241}, {"type": "node", "id": 5144578209, "lat": 23.1636919, "lon": 72.5393174}, {"type": "node", "id": 5546134532, "lat": 23.1872819, "lon": 72.5731675, "tags": {"addr:city": "Adalaj", "addr:housenumber": "SHOP NO. G/6-7-8, AMBA BUSINESS PARK", "addr:postcode": "382421", "addr:street": "Amba Township Main Road", "amenity": "bank", "atm": "yes", "branch": "Trimandir Branch", "brand": "State Bank of India", "brand:wikidata": "Q1340361", "brand:wikipedia": "en:State Bank of India", "description": "13476", "drive_through": "no", "email": "sbi.13476@sbi.co.in", "name": "State Bank of India", "operator": "State Bank of India", "phone": "7923970200", "short_name": "SBI"}}, {"type": "node", "id": 5565408341, "lat": 23.1768788, "lon": 72.5737683}, {"type": "node", "id": 5565408342, "lat": 23.1767876, "lon": 72.5736958}, {"type": "node", "id": 5565408343, "lat": 23.1766889, "lon": 72.5738595}, {"type": "node", "id": 5565408344, "lat": 23.1767888, "lon": 72.5739332}, {"type": "node", "id": 5698657522, "lat": 23.1619162, "lon": 72.5882763, "tags": {"amenity": "fuel", "name": "Cng station"}}, {"type": "node", "id": 6113414381, "lat": 23.1952986, "lon": 72.6146307, "tags": {"addr:city": "Gandhinagar", "addr:postcode": "382421", "addr:street": "Sarthak Mall", "amenity": "bank", "atm": "yes", "description": "Significant branch office of State Bank of India.", "name": "State Bank of India"}}, {"type": "node", "id": 6517889367, "lat": 23.1671365, "lon": 72.6370189}, {"type": "node", "id": 6517889368, "lat": 23.1667888, "lon": 72.6369746}, {"type": "node", "id": 6517889369, "lat": 23.1667566, "lon": 72.6372758}, {"type": "node", "id": 6517889370, "lat": 23.1671151, "lon": 72.6373108}, {"type": "node", "id": 6520979438, "lat": 23.1748208, "lon": 72.6271713, "tags": {"addr:city": "Kudasan", "addr:postcode": "382421", "amenity": "fuel", "brand": "Indian Oil", "fuel:Petrol": "yes", "fuel:diesel": "yes", "name": "Kishan Petroleum", "opening_hours": "Mo-Su 06:00-23:00", "self_service": "no"}}, {"type": "way", "id": 454888532, "nodes": [4513776253, 4513776254, 4513776255, 5144578207, 5144578208, 5144578206, 5144578209, 4513776256, 4513776253], "tags": {"addr:city": "Ahmedabad", "addr:postcode": "382421", "addr:street": "Shantigram", "building": "retail", "level": "3", "name": "Shoppers\u2019 Plaza", "operator": "Shantigram", "shop": "mall"}}, {"type": "way", "id": 581725475, "nodes": [5565408341, 5565408342, 5565408343, 5565408344, 5565408341], "tags": {"amenity": "fuel"}}, {"type": "way", "id": 694241023, "nodes": [6517889367, 6517889368, 6517889369, 6517889370, 6517889367], "tags": {"amenity": "fuel"}}]}