{"version": 0.6, "generator": "Overpass API 0.7.61.5 4133829e", "osm3s": {"timestamp_osm_base": "2024-02-25T09:46:55Z", "copyright": "The data included in this document is from www.openstreetmap.org. The data is made available under ODbL."}, "elements": [{"type": "node", "id": 2392676934, "lat": 26.8926002, "lon": 75.8042421}, {"type": "node", "id": 2392676960, "lat": 26.8926666, "lon": 75.8044623}, {"type": "node", "id": 2392676971, "lat": 26.8926099, "lon": 75.8048308}, {"type": "node", "id": 2392676985, "lat": 26.8923514, "lon": 75.8046125}, {"type": "node", "id": 2392677008, "lat": 26.8926763, "lon": 75.8047319}, {"type": "node", "id": 2392677009, "lat": 26.8927369, "lon": 75.8043576}, {"type": "node", "id": 2692620884, "lat": 26.968861, "lon": 75.7734203, "tags": {"amenity": "hospital", "name": "Soni Manipal Hospital"}}, {"type": "node", "id": 2694200840, "lat": 26.9047068, "lon": 75.7805686, "tags": {"addr:city": "Jaipur", "addr:housenumber": "1 Shivaji Nagar, Civil Lines, jaipur \u2013 302006, Rajasthan, India", "addr:postcode": "302006", "addr:street": "1 Shivaji Nagar, Civil Lines", "amenity": "hospital", "healthcare": "hospital", "name": "ALCS: Cosmetic Surgery, Hair Transplant & Laser Clinic in Jaipur"}}, {"type": "node", "id": 2694209032, "lat": 26.912687, "lon": 75.7901723}, {"type": "node", "id": 2694209058, "lat": 26.9128173, "lon": 75.7900368}, {"type": "node", "id": 2694209059, "lat": 26.9126858, "lon": 75.7900382}, {"type": "node", "id": 2694209087, "lat": 26.9128185, "lon": 75.7901709}, {"type": "node", "id": 2725302272, "lat": 26.8894783, "lon": 75.8123403, "tags": {"amenity": "hospital", "name": "Prakritik Chikitsalaya"}}, {"type": "node", "id": 2725536808, "lat": 26.8935138, "lon": 75.813656, "tags": {"amenity": "hospital", "name": "Santokba Durlabhji Memorial Hospital"}}, {"type": "node", "id": 2777043234, "lat": 26.9072246, "lon": 75.7771383, "tags": {"amenity": "hospital", "healthcare": "hospital", "name": "ESIC Hospital"}}, {"type": "node", "id": 3077970035, "lat": 26.8490145, "lon": 75.7653843, "tags": {"addr:city": "Jaipur", "addr:country": "IN", "addr:district": "Jaipur", "addr:full": "Sector - 10, Meera Bagh, Agarwal Farm, Mansarovar", "addr:postcode": "302020", "addr:state": "Rajasthan", "amenity": "hospital", "name": "Saket Hospital", "source": "OpenGovernmentData"}}, {"type": "node", "id": 3078037746, "lat": 26.8399146, "lon": 75.7696685, "tags": {"addr:city": "Jaipur", "addr:country": "IN", "addr:district": "Jaipur", "addr:full": "1/51-53, S.F.S., Mansrovar", "addr:postcode": "302020", "addr:state": "Rajasthan", "amenity": "hospital", "name": "Curewell Hospital", "source": "OpenGovernmentData"}}, {"type": "node", "id": 3476216925, "lat": 26.8569226, "lon": 75.8009531, "tags": {"addr:city": "Jaipur", "addr:full": "Jaipur", "addr:postcode": "302005", "addr:state": "Rajasthan", "addr:street": "Basant Vihar, Bajaj Nagar", "amenity": "hospital", "emergency": "yes", "name": "Goverment Rukmani Devi Japuria Hospital", "operator:type": "government", "source": "OpenGovernmentData"}}, {"type": "node", "id": 3560470590, "lat": 26.8621894, "lon": 75.812195, "tags": {"amenity": "hospital", "name": "MNIT college Dispensary", "operator": "MNIT"}}, {"type": "node", "id": 3659989985, "lat": 26.8575489, "lon": 75.8151986}, {"type": "node", "id": 3659989991, "lat": 26.8575902, "lon": 75.8150363}, {"type": "node", "id": 3660000914, "lat": 26.8579672, "lon": 75.8152686}, {"type": "node", "id": 3660000917, "lat": 26.8579777, "lon": 75.8153357}, {"type": "node", "id": 3660000919, "lat": 26.8579927, "lon": 75.8152768}, {"type": "node", "id": 3660000920, "lat": 26.8579935, "lon": 75.8151653}, {"type": "node", "id": 3738948481, "lat": 26.8453227, "lon": 75.8044957}, {"type": "node", "id": 3738948483, "lat": 26.8457658, "lon": 75.802663}, {"type": "node", "id": 3738948489, "lat": 26.8469798, "lon": 75.8036543}, {"type": "node", "id": 3738948496, "lat": 26.8474391, "lon": 75.8031835}, {"type": "node", "id": 3792309493, "lat": 26.9441333, "lon": 75.7969012}, {"type": "node", "id": 3792309494, "lat": 26.9445013, "lon": 75.7978277}, {"type": "node", "id": 3792309495, "lat": 26.9447097, "lon": 75.7966125}, {"type": "node", "id": 3792309496, "lat": 26.9447843, "lon": 75.7985147}, {"type": "node", "id": 3792309497, "lat": 26.9448409, "lon": 75.7966443}, {"type": "node", "id": 3792309498, "lat": 26.9449464, "lon": 75.7967251}, {"type": "node", "id": 3792309499, "lat": 26.9452681, "lon": 75.7974438}, {"type": "node", "id": 3792309500, "lat": 26.9453041, "lon": 75.7982491}, {"type": "node", "id": 3792309501, "lat": 26.945389, "lon": 75.7980211}, {"type": "node", "id": 3792309502, "lat": 26.9454636, "lon": 75.7978999}, {"type": "node", "id": 4141390612, "lat": 26.9744868, "lon": 75.7608253}, {"type": "node", "id": 4141390613, "lat": 26.9744749, "lon": 75.7612893}, {"type": "node", "id": 4141390614, "lat": 26.9740996, "lon": 75.7613215}, {"type": "node", "id": 4141390615, "lat": 26.9740709, "lon": 75.7608279}, {"type": "node", "id": 4226415489, "lat": 26.8547506, "lon": 75.8252712, "tags": {"addr:district": "Jaipur", "addr:full": "Sp-6, Malviya Industrial Area, Malviya Nagar, Apex Circle", "addr:postcode": "302017", "addr:state": "Rajasthan", "amenity": "hospital", "name": "Apex Hospitals Pvt Ltd", "source": "OpenGovernmentData", "website": "https://www.apexhospitals.com/"}}, {"type": "node", "id": 4427334090, "lat": 26.9604096, "lon": 75.7605386, "tags": {"amenity": "hospital"}}, {"type": "node", "id": 4466633244, "lat": 26.893253, "lon": 75.812105, "tags": {"amenity": "hospital", "name": "SDMH"}}, {"type": "node", "id": 4466634118, "lat": 26.8951673, "lon": 75.8149318, "tags": {"amenity": "hospital", "name": "soni hospital"}}, {"type": "node", "id": 4568171773, "lat": 26.9777996, "lon": 75.7745315}, {"type": "node", "id": 4621858291, "lat": 26.9185644, "lon": 75.8077715, "tags": {"addr:postcode": "302001", "addr:street": "9, Gopinath Marg, New Colony, Near Panch Batti", "amenity": "hospital", "email": "hospital@jaipurdentalhospital.com", "internet_access": "wlan", "name": "jaipur dental hospital", "name:en": "Jaipur Dental Hospital", "opening_hours": "Mo-Su 10:00-20:00", "phone": "+91-141-2368183", "website": "https://jaipurdentalhospital.com/"}}, {"type": "node", "id": 4744477348, "lat": 26.8225833, "lon": 75.7798425, "tags": {"amenity": "hospital", "name": "Sparsh Hospital"}}, {"type": "node", "id": 4793756921, "lat": 26.9063113, "lon": 75.8150111, "tags": {"amenity": "hospital"}}, {"type": "node", "id": 4793756922, "lat": 26.9060159, "lon": 75.8161049, "tags": {"addr:district": "Jaipur", "addr:full": "Jawahar Lal Nehru Marg,Jaipur", "addr:postcode": "302004", "addr:state": "Rajasthan", "amenity": "hospital", "contact:nodal_officer_email": "drbhartimalhotra@gmail.com", "contact:nodal_officer_mobile": "9414042040", "contact:phone": "+91-0141 256 0291", "emergency": "yes", "healthcare": "hospital", "name": "Sawai Man Singh Hospital, Jaipur", "name:en": "SMS Hospital", "name:etymology:wikidata": "Q3634394", "source": "OpenGovernmentData"}}, {"type": "node", "id": 4798048721, "lat": 26.90734, "lon": 75.8146282, "tags": {"amenity": "hospital", "healthcare": "hospital", "healthcare:speciality": "emergency", "name": "SMS Trauma Center"}}, {"type": "node", "id": 4880275221, "lat": 26.875564, "lon": 75.792605, "tags": {"addr:housenumber": "1337", "addr:postcode": "302015", "addr:street": "kisan marg", "amenity": "hospital", "name:en": "Jeevan Jyoti", "opening_hours": "Mo-Su 09:30-12:59", "phone": "01412595176"}}, {"type": "node", "id": 5533496172, "lat": 26.8589685, "lon": 75.8086772, "tags": {"addr:city": "Jaipur", "addr:housenumber": "202, 2nd Floor, SDC Building, Opposite Bharat Petrol Pump, Moji Colony", "addr:postcode": "302017", "addr:street": "Calgary Road", "amenity": "hospital", "email": "facekraftclinicofficial@gmail.com", "emergency": "yes", "healthcare": "hospital", "healthcare:speciality": "dental_oral_maxillo_facial_surgery;dentist;dental_surgery;dental;tooth_whitening", "name": "Face kraft - Centre for advanced dentistry", "operator": "Dr. Prateek Jain", "phone": "+917023271994", "start_date": "7-Dec-12"}}, {"type": "node", "id": 5582501185, "lat": 26.8918721, "lon": 75.8101422, "tags": {"addr:city": "Jaipur", "addr:housenumber": "B-134, Pearl Pleasure Apartments", "addr:postcode": "302015", "addr:street": "Rajendra Marg", "amenity": "hospital", "description": "Best Orthodontist in Bapu nagar, Jaipur. Provides best dental braces in jaipur.", "healthcare": "dentist", "healthcare:speciality": "orthodontist;dentist;orthodontics;dentistry", "name": "Dr. Ramani's Dental Practice", "operator": "Dr. Arun Ramani", "phone": "097838 11114", "website": "http://dentalpracticejaipur.com"}}, {"type": "node", "id": 5734398538, "lat": 26.9056943, "lon": 75.7389017}, {"type": "node", "id": 5734398539, "lat": 26.9054939, "lon": 75.7389037}, {"type": "node", "id": 5734398540, "lat": 26.9054906, "lon": 75.7385109}, {"type": "node", "id": 5734398541, "lat": 26.9056911, "lon": 75.7385088}, {"type": "node", "id": 5756676422, "lat": 26.931796, "lon": 75.7918159, "tags": {"amenity": "hospital", "name:fr": "Sanjavani hospital"}}, {"type": "node", "id": 5890361363, "lat": 26.843131, "lon": 75.8071354}, {"type": "node", "id": 5890361364, "lat": 26.8430063, "lon": 75.8071416}, {"type": "node", "id": 5890361365, "lat": 26.8430181, "lon": 75.8072752}, {"type": "node", "id": 5890361366, "lat": 26.8431476, "lon": 75.8072389}, {"type": "node", "id": 5890361367, "lat": 26.8431389, "lon": 75.8071859}, {"type": "node", "id": 5890361368, "lat": 26.8430154, "lon": 75.8072155}, {"type": "node", "id": 6341259416, "lat": 26.8401687, "lon": 75.8058755, "tags": {"amenity": "hospital", "emergency": "yes", "healthcare": "hospital", "name": "Eternal Heart Care Center"}}, {"type": "node", "id": 6341259417, "lat": 26.8407147, "lon": 75.805602}, {"type": "node", "id": 6341259418, "lat": 26.840753, "lon": 75.8059722}, {"type": "node", "id": 6341259419, "lat": 26.8392548, "lon": 75.8061277}, {"type": "node", "id": 6341259420, "lat": 26.8391687, "lon": 75.8055645}, {"type": "node", "id": 6356146986, "lat": 26.8902737, "lon": 75.7946599, "tags": {"addr:district": "Jaipur", "addr:full": "B-45, Imli Phatak, Jyoti Nagar", "addr:postcode": "302005", "addr:state": "Rajasthan", "addr:street": "Sahakar Marg", "amenity": "dentist", "name": "Thaper Dental Clinic", "name:en": "Thaper Dental Clinic In Jaipur", "opening_hours": "Mo-Sa 09:00-21:00", "phone": "+91 141 274 3788", "source": "OpenGovernmentData", "website": "https://www.thaperdentalclinic.com/"}}, {"type": "node", "id": 6968230705, "lat": 26.8915644, "lon": 75.7414192, "tags": {"addr:district": "Jaipur", "addr:full": "93-B, Tagore Nagar, Ajmer Road", "addr:postcode": "302024", "addr:state": "Rajasthan", "amenity": "hospital", "healthcare": "hospital", "name": "Asopa Hospital", "source": "OpenGovernmentData"}}, {"type": "node", "id": 6978725493, "lat": 26.9034734, "lon": 75.7292121, "tags": {"amenity": "hospital", "healthcare": "hospital", "name": "Shalby Multi-Specialty Hospital, Jaipur", "website": "https://www.shalby.org/"}}, {"type": "node", "id": 7024812754, "lat": 26.8944983, "lon": 75.7640308, "tags": {"addr:district": "Jaipur", "addr:full": "B 36 Shyam Nagar Sodala", "addr:postcode": "302019", "addr:state": "Rajasthan", "amenity": "hospital", "name": "Sharad Hospital", "source": "OpenGovernmentData"}}, {"type": "node", "id": 7024847602, "lat": 26.8453338, "lon": 75.7706899, "tags": {"addr:district": "Jaipur", "addr:full": "112/15, Madhyam Marg, Agarwal Farm, Mansarovar", "addr:postcode": "302020", "addr:state": "Rajasthan", "amenity": "hospital", "name": "Sharda General Hospital", "source": "OpenGovernmentData"}}, {"type": "node", "id": 7024858970, "lat": 26.8675199, "lon": 75.7702032, "tags": {"addr:district": "Jaipur", "addr:full": "Shipra Path, ( OppositeV.T. Road),Mansrovar", "addr:postcode": "302020", "addr:state": "Rajasthan", "amenity": "hospital", "name": "R.A.G. Hospital", "source": "OpenGovernmentData", "website": "https://raghospital.webs.com/"}}, {"type": "node", "id": 7024889676, "lat": 26.9068181, "lon": 75.8245965, "tags": {"addr:district": "Jaipur", "addr:full": "C-17, Deepak Marg, Adarsh Nagar", "addr:postcode": "302004", "addr:state": "Rajasthan", "amenity": "hospital", "name": "Sharma Hospital, Jaipur", "source": "OpenGovernmentData"}}, {"type": "node", "id": 7024897100, "lat": 26.8525438, "lon": 75.8017749, "tags": {"addr:district": "Jaipur", "addr:full": "N86,Adinath Nagar,J.L.N Marg", "addr:postcode": "302015", "addr:state": "Rajasthan", "amenity": "hospital", "name": "R.G.S Eye Centre and Retina Foundation", "source": "OpenGovernmentData", "website": "rgseyecentre.com"}}, {"type": "node", "id": 7025015210, "lat": 26.9245242, "lon": 75.788056, "tags": {"addr:district": "Jaipur", "addr:full": "D-9, Kabir Marg, Bani Park", "addr:postcode": "302016", "addr:state": "Rajasthan", "amenity": "hospital", "name": "Bani Park Hospital", "source": "OpenGovernmentData"}}, {"type": "node", "id": 7025038083, "lat": 26.8953299, "lon": 75.8208033, "tags": {"addr:district": "Jaipur", "addr:full": "B-2, Dhruv Marg, Tilak Nagar", "addr:postcode": "302004", "addr:state": "Rajasthan", "amenity": "hospital", "name": "K.M.S.Hospital", "source": "OpenGovernmentData"}}, {"type": "node", "id": 7025042980, "lat": 27.0590751, "lon": 75.7532983, "tags": {"addr:district": "Jaipur", "addr:full": "Sikar Road Village Rajawas", "addr:postcode": "302032", "addr:state": "Rajasthan", "amenity": "hospital", "name": "K.S Chaudhary Hospital", "source": "OpenGovernmentData"}}, {"type": "node", "id": 7025072866, "lat": 26.8189131, "lon": 75.7986467, "tags": {"addr:district": "Jaipur", "addr:full": "26-27, Shiv Colony, Airport Road, Thana Cirlce,Sanganer", "addr:postcode": "302015", "addr:state": "Rajasthan", "amenity": "hospital", "name": "Archana Hospital", "source": "OpenGovernmentData"}}, {"type": "node", "id": 7025115708, "lat": 26.8620322, "lon": 75.7549683, "tags": {"addr:district": "Jaipur", "addr:full": "No. 60/181, Rajat Path,New Sanganer Road,Mansarovar", "addr:postcode": "302020", "addr:state": "Rajasthan", "amenity": "clinic", "name": "Anurag Nursing Home, Mansarovar", "source": "OpenGovernmentData"}}, {"type": "node", "id": 7025156650, "lat": 26.8479288, "lon": 75.8053221, "tags": {"addr:district": "Jaipur", "addr:full": "29, Girdhar Marg, Sunder Nagar Opposite Hotel Clarks Amer", "addr:postcode": "302017", "addr:state": "Rajasthan", "amenity": "hospital", "name": "Anita Maternity Home", "source": "OpenGovernmentData"}}, {"type": "node", "id": 7025157462, "lat": 26.8873756, "lon": 75.8079158, "tags": {"addr:district": "Jaipur", "addr:full": "B-209,Rajendra Marg,Bapu Nagar", "addr:postcode": "302015", "addr:state": "Rajasthan", "amenity": "hospital", "name": "Anshu Hospital", "source": "OpenGovernmentData", "website": "anshudentalcare.com"}}, {"type": "node", "id": 7025196557, "lat": 26.9075955, "lon": 75.8238333, "tags": {"addr:district": "Jaipur", "addr:full": "C 13, Deepak Marg, Moti Dungri Road", "addr:postcode": "302004", "addr:state": "Rajasthan", "amenity": "hospital", "name": "Anil Hospital", "source": "OpenGovernmentData"}}, {"type": "node", "id": 7025199278, "lat": 26.8962948, "lon": 75.7448383, "tags": {"addr:district": "Jaipur", "addr:full": "189, Heera Nagar, Ajmer Road", "addr:postcode": "302006", "addr:state": "Rajasthan", "amenity": "hospital", "name": "Anita Children's Hospital", "source": "OpenGovernmentData"}}, {"type": "node", "id": 7025210570, "lat": 26.944793, "lon": 75.7478651, "tags": {"addr:district": "Jaipur", "addr:full": "Kalwar Rd,Jhotwara,Jaipur", "addr:postcode": "302012", "addr:state": "Rajasthan", "amenity": "hospital", "name": "Anand Maternity Hospital", "source": "OpenGovernmentData"}}, {"type": "node", "id": 7025222996, "lat": 26.9081588, "lon": 75.7963179, "tags": {"addr:district": "Jaipur", "addr:full": "21,Near Bagadia Bhawan, Jamna Lal Bajaj Marg, C-Scheme, Jaipur", "addr:postcode": "302005", "addr:state": "Rajasthan", "amenity": "hospital", "name": "Anand Eye Hospital", "source": "OpenGovernmentData", "website": "https://anandeyehospital.com/"}}, {"type": "node", "id": 7025281080, "lat": 26.8681845, "lon": 75.7577665, "tags": {"addr:district": "Jaipur", "addr:full": "Kiran Path Circle, Mansarovar", "addr:postcode": "302020", "addr:state": "Rajasthan", "amenity": "hospital", "name": "Amar Medical and Research Centre", "source": "OpenGovernmentData"}}, {"type": "node", "id": 7025288970, "lat": 26.8620783, "lon": 75.7926258, "tags": {"addr:district": "Jaipur", "addr:full": "Gopalpura By Pass, Near Police Chowki , Mahavir Nagar", "addr:postcode": "302019", "addr:state": "Rajasthan", "amenity": "hospital", "name": "Amarnath Allergy And General Hospital", "source": "OpenGovernmentData"}}, {"type": "node", "id": 7025306774, "lat": 26.9204054, "lon": 75.821414, "tags": {"addr:district": "Jaipur", "addr:full": "4-J-5, Jawahar Nagar, Choura Rasta", "addr:postcode": "302003", "addr:state": "Rajasthan", "amenity": "hospital", "healthcare": "hospital", "name": "Amar Jain Hospital", "source": "OpenGovernmentData"}}, {"type": "node", "id": 7027488070, "lat": 26.8155385, "lon": 75.7741803, "tags": {"addr:district": "Jaipur", "addr:full": "Opposite Railway Station, Sanganer", "addr:postcode": "303007", "addr:state": "Rajasthan", "amenity": "hospital", "name": "Raj Hospital, Jaipur", "source": "OpenGovernmentData"}}, {"type": "node", "id": 7027516600, "lat": 26.901251, "lon": 75.7969281, "tags": {"addr:district": "Jaipur", "addr:full": "4/A, Tilak Marg", "addr:postcode": "302003", "addr:state": "Rajasthan", "amenity": "hospital", "name": "Dr Roy Chowdary's Institute Of Urology", "source": "OpenGovernmentData", "website": "https://instituteofurology.in/"}}, {"type": "node", "id": 7027544538, "lat": 26.9460902, "lon": 75.7357603, "tags": {"addr:district": "Jaipur", "addr:full": "Joshi Marg, Kalwar Road, Jotwara", "addr:postcode": "302021", "addr:state": "Rajasthan", "amenity": "hospital", "name": "Radha Nursing Home, Jotwara", "source": "OpenGovernmentData"}}, {"type": "node", "id": 7027565979, "lat": 26.9215199, "lon": 75.7426026, "tags": {"addr:district": "Jaipur", "addr:full": "B-6, Hanuman Nagar, Main Sirsi Road , Khatipura", "addr:postcode": "302021", "addr:state": "Rajasthan", "amenity": "hospital", "name": "R.K.Yadav Memorial Hospital", "source": "OpenGovernmentData"}}, {"type": "node", "id": 7027616575, "lat": 26.8815962, "lon": 75.7987918, "tags": {"addr:district": "Jaipur", "addr:full": "B - 14, Lal Kothi Shopping Centre, Behind Times Of India, Tonk Road, Near Laxmi Mandir Cinema", "addr:postcode": "302015", "addr:state": "Rajasthan", "amenity": "hospital", "name": "J P Eye Hospital, Jaipur", "source": "OpenGovernmentData", "website": "jpkabraeyehospital.com"}}, {"type": "node", "id": 7027675114, "lat": 26.9421067, "lon": 75.7639946, "tags": {"addr:district": "Jaipur", "addr:full": "Bajrang Colony,Jhotwara", "addr:postcode": "302012", "addr:state": "Rajasthan", "amenity": "hospital", "name": "Shubham Hospital and Maternity Centre", "source": "OpenGovernmentData"}}, {"type": "node", "id": 7027685279, "lat": 26.9014055, "lon": 75.8177174, "tags": {"addr:district": "Jaipur", "addr:full": "Adarsh Nagar", "addr:postcode": "302004", "addr:state": "Rajasthan", "amenity": "hospital", "name": "J. K. Loan Hospital", "source": "OpenGovernmentData"}}, {"type": "node", "id": 7027690433, "lat": 26.8973018, "lon": 75.8109118, "tags": {"addr:district": "Jaipur", "addr:full": "456 Dr.Garg Tower,Near RBI", "addr:postcode": "303103", "addr:state": "Rajasthan", "amenity": "hospital", "name": "International Fertility and Health Care Centre", "source": "OpenGovernmentData", "website": "fertilitytreatmentindia.com"}}, {"type": "node", "id": 7027700037, "lat": 26.9194554, "lon": 75.743105, "tags": {"addr:district": "Jaipur", "addr:full": "B-52, Gautam Marg, Near Vaishali Circle, Hanuman Nagar, Khatipura", "addr:postcode": "302021", "addr:state": "Rajasthan", "amenity": "hospital", "name": "J. N. Mishra Memorial Hospital", "source": "OpenGovernmentData"}}, {"type": "node", "id": 7027721133, "lat": 26.8917103, "lon": 75.8002755, "tags": {"addr:district": "Jaipur", "addr:full": "C-18, Near New Vidhan Sabha, Lalkothi", "addr:postcode": "302020", "addr:state": "Rajasthan", "amenity": "hospital", "name": "Indowestern Brain and Spine Hospital", "source": "OpenGovernmentData"}}, {"type": "node", "id": 7027743300, "lat": 26.8935881, "lon": 75.8243215, "tags": {"addr:district": "Jaipur", "addr:full": "337/5, Vyas Marg,Prabhu Marg, Opp A/C Market, Jaipur", "addr:postcode": "302004", "addr:state": "Rajasthan", "amenity": "hospital", "name": "Holy Family Hospital, Jaipur", "source": "OpenGovernmentData", "website": "https://holyfamilyhospitaljaipur.in/"}}, {"type": "node", "id": 7027752926, "lat": 26.8402031, "lon": 75.7717831, "tags": {"addr:district": "Jaipur", "addr:full": "No. 2 / 154, Dwarka Path, S F S, Mansarover", "addr:postcode": "302020", "addr:state": "Rajasthan", "amenity": "hospital", "name": "Hi Tech Hospital, Jaipur", "source": "OpenGovernmentData"}}, {"type": "node", "id": 7027765939, "lat": 26.9086623, "lon": 75.8108716, "tags": {"addr:district": "Jaipur", "addr:full": "7, Vivekanand Marg, C-Scheme", "addr:postcode": "302001", "addr:state": "Rajasthan", "amenity": "hospital", "name": "Heart and General Hospital", "source": "OpenGovernmentData", "website": "https://heartandgeneralhospital.com/"}}, {"type": "node", "id": 7027768952, "lat": 26.8940283, "lon": 75.7694166, "tags": {"addr:district": "Jaipur", "addr:full": "D-27, Shyam Nagar, New Sanganer Road, Sodala", "addr:postcode": "302019", "addr:state": "Rajasthan", "amenity": "hospital", "name": "Vardhman Hospital, Jaipur", "source": "OpenGovernmentData"}}, {"type": "node", "id": 7027783622, "lat": 26.8784928, "lon": 75.7792993, "tags": {"addr:district": "Jaipur", "addr:full": "60 Feet Rd, C-Block,Mahesh Nagar", "addr:postcode": "302015", "addr:state": "Rajasthan", "amenity": "hospital", "name": "Health Hospital", "source": "OpenGovernmentData"}}, {"type": "node", "id": 7027786380, "lat": 26.8979427, "lon": 75.8178108, "tags": {"addr:district": "Jaipur", "addr:full": "20 Uniara Garden, J.N.L. Road", "addr:postcode": "302004", "addr:state": "Rajasthan", "amenity": "hospital", "name": "Uniara Hospital", "source": "OpenGovernmentData"}}, {"type": "node", "id": 7027800130, "lat": 26.9003251, "lon": 75.7516079, "tags": {"addr:district": "Jaipur", "addr:full": "A -100, Bhan Nagar, Main Vidhut Nagar, Queens Roads", "addr:postcode": "302021", "addr:state": "Rajasthan", "amenity": "hospital", "name": "Tyagi Eye Hospital", "source": "OpenGovernmentData", "website": "https://tyagieyehospital.com/"}}, {"type": "node", "id": 7027807266, "lat": 26.8577086, "lon": 75.811413}, {"type": "node", "id": 7027807267, "lat": 26.8576597, "lon": 75.8115758}, {"type": "node", "id": 7027807268, "lat": 26.8573801, "lon": 75.8114702}, {"type": "node", "id": 7027807269, "lat": 26.8574291, "lon": 75.8113074}, {"type": "node", "id": 7028034200, "lat": 26.8709028, "lon": 75.6951954, "tags": {"addr:district": "Jaipur", "addr:full": "Neer-Sagar Colony, Main Ajmer Road, Bhankrota Choraha", "addr:postcode": "302005", "addr:state": "Rajasthan", "amenity": "hospital", "name": "Ashok Hospital and Research Center", "source": "OpenGovernmentData"}}, {"type": "node", "id": 7028059883, "lat": 26.9055068, "lon": 75.7780299, "tags": {"addr:district": "Jaipur", "addr:full": "Suraj Nagar (West), Civil Lines", "addr:postcode": "302006", "addr:state": "Rajasthan", "amenity": "hospital", "name": "Kamdar Children Hospital", "source": "OpenGovernmentData"}}, {"type": "node", "id": 7030319488, "lat": 26.902255, "lon": 75.8167071, "tags": {"addr:district": "Jaipur", "addr:full": "J.L.N Marg Jaipur", "addr:postcode": "302017", "addr:state": "Rajasthan", "amenity": "clinic", "healthcare": "hospital", "name": "Getwell Poly Clinic and Hospital", "source": "OpenGovernmentData"}}, {"type": "node", "id": 7030319503, "lat": 26.8676258, "lon": 75.8034563, "tags": {"amenity": "hospital", "healthcare": "hospital", "name": "Advanced Heart Care Center"}}, {"type": "node", "id": 7030343843, "lat": 26.8216987, "lon": 75.5439261, "tags": {"addr:district": "Jaipur", "addr:full": "Link Road, Bagru", "addr:postcode": "303007", "addr:state": "Rajasthan", "amenity": "hospital", "name": "Bharadwaj Hospital", "source": "OpenGovernmentData", "website": "bhardwajhospitalbagru.in"}}, {"type": "node", "id": 7030351333, "lat": 26.8636395, "lon": 75.7937336, "tags": {"addr:district": "Jaipur", "addr:full": "138-A, Vasundhra Colony, Gopalpura ByPass, Tonk Road", "addr:postcode": "302018", "addr:state": "Rajasthan", "amenity": "hospital", "name": "Bhandari Hospital and Research Centre", "source": "OpenGovernmentData", "website": "https://bhandarihospital.net/"}}, {"type": "node", "id": 7030410093, "lat": 26.9025702, "lon": 75.8257002, "tags": {"addr:district": "Jaipur", "addr:full": "434, Adarsh Nagar", "addr:postcode": "302004", "addr:state": "Rajasthan", "amenity": "hospital", "name": "Bhiwani Eye Care Centre", "source": "OpenGovernmentData"}}, {"type": "node", "id": 7030524543, "lat": 26.9388918, "lon": 75.7810803, "tags": {"addr:district": "Jaipur", "addr:full": "43, Ashok Vihar, Ambabari Bridge, Behind Petrol Pump, Jhotwara", "addr:postcode": "302012", "addr:state": "Rajasthan", "amenity": "hospital", "healthcare": "hospital", "name": "C.B.L. Memorial Holy Family Hospital", "source": "OpenGovernmentData"}}, {"type": "node", "id": 7030539374, "lat": 27.15357, "lon": 75.7259669, "tags": {"addr:district": "Jaipur", "addr:full": "Near Uco Bank,Chomu", "addr:postcode": "303702", "addr:state": "Rajasthan", "amenity": "hospital", "name": "J.S.Mahila and General Hospital and Research Centre", "source": "OpenGovernmentData"}}, {"type": "node", "id": 7030551132, "lat": 26.9009951, "lon": 75.8267596, "tags": {"addr:district": "Jaipur", "addr:full": "471, Adarsh Nagar", "addr:postcode": "302004", "addr:state": "Rajasthan", "amenity": "hospital", "name": "Carewell Hospital", "source": "OpenGovernmentData"}}, {"type": "node", "id": 7030589195, "lat": 26.8593131, "lon": 75.8081784, "tags": {"addr:district": "Jaipur", "addr:full": "Centre for Sight, Malviya Nagar Main Road, Opposite Petrol Pump", "addr:postcode": "302017", "addr:state": "Rajasthan", "amenity": "hospital", "email": "infojaipur@centreforsight.net", "name": "Centre For Sight", "operator:type": "private", "source": "OpenGovernmentData", "website": "https://www.centreforsight.net/"}}, {"type": "node", "id": 7030599187, "lat": 26.9378, "lon": 75.7929099, "tags": {"addr:district": "Jaipur", "addr:full": "Shastri Nagar", "addr:postcode": "302013", "addr:state": "Rajasthan", "amenity": "hospital", "name": "Government Dental College and Hospital, Jaipur", "operator:type": "government", "source": "OpenGovernmentData"}}, {"type": "node", "id": 7030617003, "lat": 26.9354644, "lon": 75.7881075, "tags": {"addr:district": "Jaipur", "addr:full": "Bani Park, Jaipur", "addr:postcode": "302016", "addr:state": "Rajasthan", "amenity": "hospital", "name": "Jaipur Fertility Centre", "source": "OpenGovernmentData"}}, {"type": "node", "id": 7030621054, "lat": 26.9263698, "lon": 75.806627, "tags": {"addr:district": "Jaipur", "addr:full": "Chand-Pole Gate,Near Police Lines", "addr:postcode": "302001", "addr:state": "Rajasthan", "amenity": "hospital", "name": "Zanana Hospital", "source": "OpenGovernmentData", "website": "health.rajasthan.gov.in"}}, {"type": "node", "id": 7030626395, "lat": 26.8559437, "lon": 75.8222223, "tags": {"addr:district": "Jaipur", "addr:full": "Malviya Nagar", "addr:postcode": "302017", "addr:state": "Rajasthan", "amenity": "hospital", "name": "Jaipur Calgary Eye Hospital"}}, {"type": "node", "id": 7030662436, "lat": 26.9474949, "lon": 75.8030704, "tags": {"addr:district": "Jaipur", "addr:full": "4 Kh , 2 Housing Board, Shastri Nagar", "addr:postcode": "302016", "addr:state": "Rajasthan", "amenity": "clinic", "name": "Jain Nursing Home, Jaipur", "source": "OpenGovernmentData"}}, {"type": "node", "id": 7030693236, "lat": 26.8715679, "lon": 75.7009154, "tags": {"addr:district": "Jaipur", "addr:full": "Ajmer Road, Bhankrota", "addr:postcode": "302026", "addr:state": "Rajasthan", "amenity": "hospital", "name": "Rawal Hospital, Jaipur", "source": "OpenGovernmentData"}}, {"type": "node", "id": 7030706660, "lat": 26.9090904, "lon": 75.8244556, "tags": {"addr:district": "Jaipur", "addr:full": "K-4A, Fatehtiba, Adarsh Nagar Road", "addr:postcode": "302004", "addr:state": "Rajasthan", "amenity": "clinic", "name": "Jain Eye Clinic and Hospital", "source": "OpenGovernmentData", "website": "mrj-jaineye.com"}}, {"type": "node", "id": 7030706668, "lat": 26.9118613, "lon": 75.7502174, "tags": {"addr:district": "Jaipur", "addr:full": "D-253, Amrapali Marg, Hanuman Nagar, Vaishali Nagar", "addr:postcode": "302021", "addr:state": "Rajasthan", "amenity": "hospital", "name": "Jain Fertility and Mother Care Hospital", "source": "OpenGovernmentData", "website": "https://www.jainfertility.com/"}}, {"type": "node", "id": 7030721841, "lat": 27.0022613, "lon": 75.7945356, "tags": {"addr:district": "Jaipur", "addr:full": "84, Karani Vihar-B Road No . 17 Vki Jaipur", "addr:postcode": "302013", "addr:state": "Rajasthan", "amenity": "hospital", "name": "Khandelwal Hospital", "source": "OpenGovernmentData"}}, {"type": "node", "id": 7030741194, "lat": 26.8915847, "lon": 75.800187, "tags": {"addr:district": "Jaipur", "addr:full": "23-24, Satya Vihar Colony, Pankaj Singhavi Marg, Near New Vidhan Sabha, Lal Kothi", "addr:postcode": "302015", "addr:state": "Rajasthan", "amenity": "hospital", "name": "Jain ENT Hospital, Jaipur", "source": "OpenGovernmentData"}}, {"type": "node", "id": 7030741596, "lat": 26.8564929, "lon": 75.7960518, "tags": {"addr:district": "Jaipur", "addr:full": "160-161, Kailash Puri Tonk Road", "addr:postcode": "302018", "addr:state": "Rajasthan", "amenity": "hospital", "name": "Khandaka Hospital", "source": "OpenGovernmentData"}}, {"type": "node", "id": 7030796055, "lat": 26.898157, "lon": 75.7805492, "tags": {"addr:district": "Jaipur", "addr:full": "#18, Nandpuri Extension, Behind Chambal Grid,Hawa Sadak", "addr:postcode": "302019", "addr:state": "Rajasthan", "amenity": "hospital", "name": "Sita Devi Hospital", "source": "OpenGovernmentData", "website": "sitadevihospitals.com"}}, {"type": "node", "id": 7030849552, "lat": 26.9434985, "lon": 75.7528141, "tags": {"addr:district": "Jaipur", "addr:full": "Kalwar Road, Jhotwara", "addr:postcode": "302012", "addr:state": "Rajasthan", "amenity": "hospital", "name": "Monika Hospital", "source": "OpenGovernmentData"}}, {"type": "node", "id": 7030874903, "lat": 26.8678938, "lon": 75.7970676, "tags": {"addr:district": "Jaipur", "addr:full": "74-B, Jawahar Nagar, Near Glass Factory,Tonk Road", "addr:postcode": "302015", "addr:state": "Rajasthan", "amenity": "clinic", "name": "Somvati Memorial Hospital", "source": "OpenGovernmentData"}}, {"type": "node", "id": 7030952427, "lat": 26.8976523, "lon": 75.8240989, "tags": {"addr:district": "Jaipur", "addr:full": "Near Parnami Mandir, Raja Park, Adarsh Nagar", "addr:postcode": "302004", "addr:state": "Rajasthan", "amenity": "hospital", "name": "Madan Parnami Memorial Hospital", "source": "OpenGovernmentData"}}, {"type": "node", "id": 7034744567, "lat": 27.0096815, "lon": 75.7692732, "tags": {"addr:district": "Sikar", "addr:full": "Sikar Road", "addr:postcode": "332001", "addr:state": "Rajasthan", "amenity": "hospital", "name": "Jyoti Chest and General Hospital", "source": "OpenGovernmentData"}}, {"type": "node", "id": 7034765952, "lat": 26.9136622, "lon": 75.8025286, "tags": {"addr:district": "Jaipur", "addr:full": "K-20, Malan Ka Chauraha, Malviya Marg, C Scheme", "addr:postcode": "302001", "addr:state": "Rajasthan", "amenity": "hospital", "name": "K.C. Memorial Eye Hospital", "source": "OpenGovernmentData", "website": "kcmemorial.com"}}, {"type": "node", "id": 7034781108, "lat": 26.9213178, "lon": 75.803289, "tags": {"addr:district": "Jaipur", "addr:full": "Opposite Amber Tower,Sansarchandra Rd", "addr:postcode": "302001", "addr:state": "Rajasthan", "amenity": "clinic", "name": "Jyotiba Hospital", "source": "OpenGovernmentData"}}, {"type": "node", "id": 7034783447, "lat": 26.977458, "lon": 75.7744807}, {"type": "node", "id": 7034783448, "lat": 26.9775187, "lon": 75.7739674}, {"type": "node", "id": 7034783449, "lat": 26.9778603, "lon": 75.7740183}, {"type": "node", "id": 7034856996, "lat": 26.898218, "lon": 75.8236563, "tags": {"addr:district": "Jaipur", "addr:full": "No. B-9 (D), Govind Marg,Adarsh Nagar", "addr:postcode": "302004", "addr:state": "Rajasthan", "amenity": "hospital", "name": "Vasundhra Hospital", "source": "OpenGovernmentData", "website": "https://www.drjollyarora.com/"}}, {"type": "node", "id": 7034908135, "lat": 26.8996424, "lon": 75.7368386, "tags": {"addr:district": "Jaipur", "addr:full": "No. 10/62, Janki Marg,Chitrakoot Scheme,Opposite Stadium,Vaishali Nagar", "addr:postcode": "302021", "addr:state": "Rajasthan", "amenity": "hospital", "healthcare": "hospital", "name": "Jindal Eye Hospital", "source": "OpenGovernmentData"}}, {"type": "node", "id": 7034953778, "lat": 26.9772622, "lon": 75.7726796, "tags": {"addr:district": "Jaipur", "addr:full": "Near Panchayat Samiti,Kalwar Road,Jhotwara", "addr:postcode": "302012", "addr:state": "Rajasthan", "amenity": "hospital", "name": "Jha Hospital", "source": "OpenGovernmentData"}}, {"type": "node", "id": 7034998849, "lat": 26.9225486, "lon": 75.7534271, "tags": {"addr:district": "Jaipur", "addr:full": "Jharkhand Moad, Khati Pura Road", "addr:postcode": "302012", "addr:state": "Rajasthan", "amenity": "hospital", "name": "Sadhana Hospital Pvt. Ltd.", "source": "OpenGovernmentData"}}, {"type": "node", "id": 7035005280, "lat": 26.8972552, "lon": 75.7522546, "tags": {"addr:district": "Jaipur", "addr:full": "A-35, Vidhyut Nagar, Ajmer Road,Purani Chungi", "addr:postcode": "302021", "addr:state": "Rajasthan", "amenity": "hospital", "name": "Shubh Hospital", "source": "OpenGovernmentData"}}, {"type": "node", "id": 7035008372, "lat": 26.8019159, "lon": 75.8131447, "tags": {"addr:district": "Jaipur", "addr:full": "Sector-8, Pratapnagar, Sanganer", "addr:postcode": "302033", "addr:state": "Rajasthan", "amenity": "hospital", "name": "Gopinath Hospital", "source": "OpenGovernmentData"}}, {"type": "node", "id": 7035072949, "lat": 26.9820428, "lon": 75.7721069, "tags": {"addr:district": "Jaipur", "addr:full": "A-95, Shriniwas Nagar, Road No. 6, Opposite Om Toyota, Vishwakarma, Sikar Road", "addr:postcode": "302013", "addr:state": "Rajasthan", "amenity": "hospital", "name": "Shri Ram Hospital, Jaipur", "source": "OpenGovernmentData"}}, {"type": "node", "id": 7035093683, "lat": 26.8631478, "lon": 75.7544397, "tags": {"addr:district": "Jaipur", "addr:full": "60/7, New Sanganer Road, Rajat Path, Mansarovar", "addr:postcode": "302020", "addr:state": "Rajasthan", "amenity": "hospital", "name": "Gem Hospital", "source": "OpenGovernmentData"}}, {"type": "node", "id": 7035096937, "lat": 26.9412715, "lon": 75.7741056, "tags": {"addr:district": "Jaipur", "addr:full": "Ambabari", "addr:postcode": "302012", "addr:state": "Rajasthan", "amenity": "clinic", "name": "Gem Nursing Home", "source": "OpenGovernmentData"}}, {"type": "node", "id": 7035102789, "lat": 26.897425, "lon": 75.7516202, "tags": {"addr:district": "Jaipur", "addr:full": "27,Vidhyut Nagar-A,Ajmer Road", "addr:postcode": "302021", "addr:state": "Rajasthan", "amenity": "hospital", "name": "Shri Niddan Hospital and Hope Fertility Centre", "source": "OpenGovernmentData"}}, {"type": "node", "id": 7035107000, "lat": 26.9096883, "lon": 75.7899821, "tags": {"addr:district": "Jaipur", "addr:full": "1, Jacob Road, Civil Lines", "addr:postcode": "302006", "addr:state": "Rajasthan", "amenity": "hospital", "name": "Gautam Hospital and Research Center", "source": "OpenGovernmentData"}}, {"type": "node", "id": 7035131690, "lat": 26.9429908, "lon": 75.7496845, "tags": {"addr:district": "Jaipur", "addr:full": "5, Gulab Bari,kalwar road,kumasiya, Jhotwara", "addr:postcode": "302001", "addr:state": "Rajasthan", "amenity": "hospital", "name": "Jeevan Shri Hospital and Fertility Center", "source": "OpenGovernmentData"}}, {"type": "node", "id": 7035163535, "lat": 26.971395, "lon": 75.760497, "tags": {"addr:district": "Jaipur", "addr:full": "Near Kedia Palace, Muralipura Scheme", "addr:postcode": "302012", "addr:state": "Rajasthan", "amenity": "hospital", "name": "M.D.D. Hospital", "source": "OpenGovernmentData"}}, {"type": "node", "id": 7035249224, "lat": 26.8957806, "lon": 75.8146733, "tags": {"addr:district": "Jaipur", "addr:full": "38, Kanota Bagh, J.L.N.Marg", "addr:postcode": "302004", "addr:state": "Rajasthan", "amenity": "hospital", "name": "Soni Hospital", "source": "OpenGovernmentData"}}, {"type": "node", "id": 7035250093, "lat": 26.8832814, "lon": 75.7549212, "tags": {"addr:district": "Jaipur", "addr:full": "46, Everest Vihar, King's Road Nirman Nagar", "addr:postcode": "302019", "addr:state": "Rajasthan", "amenity": "clinic", "name": "Sarvgya Nursing Home", "source": "OpenGovernmentData"}}, {"type": "node", "id": 7035250100, "lat": 26.9013367, "lon": 75.739079, "tags": {"addr:district": "Jaipur", "addr:full": "C-172, Vaishali Nagar, Behind Vaibhav Cine-Multi Plex", "addr:postcode": "302021", "addr:state": "Rajasthan", "amenity": "hospital", "name": "Dr Mahendra Orthopaedic Centre", "source": "OpenGovernmentData"}}, {"type": "node", "id": 7035294692, "lat": 26.9303934, "lon": 75.8203457, "tags": {"addr:district": "Jaipur", "addr:full": "Near Chaugan Stadium, Tripolia Bazar, Gangori Bazaar", "addr:postcode": "302001", "addr:state": "Rajasthan", "addr:subdistrict": "Jaipur", "amenity": "hospital", "name": "Gangori Hospital", "source": "OpenGovernmentData"}}, {"type": "node", "id": 7035294751, "lat": 26.9599811, "lon": 75.7773485, "tags": {"addr:district": "Jaipur", "addr:full": "A/2, Opposite, Time Square, Central Spine Vidhyadhar Nagar", "addr:postcode": "302039", "addr:state": "Rajasthan", "amenity": "hospital", "name": "Ganadhipati Purushottam Shekhawati Hospital and Research Center", "source": "OpenGovernmentData"}}, {"type": "node", "id": 7035294759, "lat": 26.9601055, "lon": 75.7772497}, {"type": "node", "id": 7036670276, "lat": 26.8454675, "lon": 75.8131608, "tags": {"addr:district": "Jaipur", "addr:full": "11/34, Girdhar Marg, Malviya Nagar,Jaipur-302017", "addr:postcode": "302018", "addr:state": "Rajasthan", "amenity": "hospital", "name": "Girdhar Hospital and Research Centre", "source": "OpenGovernmentData"}}, {"type": "node", "id": 7036728296, "lat": 26.889592, "lon": 75.8037262, "tags": {"addr:district": "Jaipur", "addr:full": "Mall,Lal Kothi,Tonk Road", "addr:postcode": "302006", "addr:state": "Rajasthan", "amenity": "hospital", "name": "Global Advanced Ent Surgery Centre", "source": "OpenGovernmentData"}}, {"type": "node", "id": 7036731239, "lat": 26.8467981, "lon": 75.8101729, "tags": {"addr:district": "Jaipur", "addr:full": "68, Siddharth Nagar E-Block, Sector 12 Main Road", "addr:postcode": "302017", "addr:state": "Rajasthan", "amenity": "hospital", "name": "Ghiya Hospital", "source": "OpenGovernmentData"}}, {"type": "node", "id": 7036732214, "lat": 26.8735212, "lon": 75.7962294, "tags": {"addr:district": "Jaipur", "addr:full": "F-27, Ruchika Shopping Complix, Madhuban Colony, Kisan Marg, Tonk Road", "addr:postcode": "302015", "addr:state": "Rajasthan", "amenity": "clinic", "name": "Gupta Dental Clinic and Perio Surgery Hospital", "source": "OpenGovernmentData"}}, {"type": "node", "id": 7036733935, "lat": 26.8502608, "lon": 75.7695696, "tags": {"addr:district": "Jaipur", "addr:full": "94/49-50, Agarwal Farm, Mansarover", "addr:postcode": "302020", "addr:state": "Rajasthan", "amenity": "hospital", "name": "Ginni Devi Memorial Hospital", "source": "OpenGovernmentData"}}, {"type": "node", "id": 7036743535, "lat": 26.9434696, "lon": 75.803289, "tags": {"addr:district": "Jaipur", "addr:full": "1- A- 110 Shiv Shakti Colony , Opposite P&T Quarters, Near Khandelwal College, Shastri Nagar", "addr:postcode": "302016", "addr:state": "Rajasthan", "amenity": "hospital", "name": "Gupta Hospital", "source": "OpenGovernmentData"}}, {"type": "node", "id": 7036743841, "lat": 26.8516129, "lon": 75.7679455, "tags": {"addr:district": "Jaipur", "addr:full": "Madhyam Marg Mansarovar", "addr:postcode": "302020", "addr:state": "Rajasthan", "amenity": "hospital", "name": "Gupta Hospital and Diagnostic Centre Jaipur", "source": "OpenGovernmentData"}}, {"type": "node", "id": 7036760592, "lat": 26.8545443, "lon": 75.7938503, "tags": {"addr:district": "Jaipur", "addr:full": "Tonk Road", "addr:postcode": "302018", "addr:state": "Rajasthan", "amenity": "clinic", "name": "Gupta Fracture Clinic and Spine Centre", "source": "OpenGovernmentData"}}, {"type": "node", "id": 7036765142, "lat": 26.9379927, "lon": 75.8008106, "tags": {"addr:district": "Jaipur", "addr:full": "A-1, Pani Ki Tanki Circle,Shastri Nagar", "addr:postcode": "302016", "addr:state": "Rajasthan", "amenity": "hospital", "name": "Goyal Hospital, Jaipur", "source": "OpenGovernmentData"}}, {"type": "node", "id": 7036785909, "lat": 26.9112107, "lon": 75.7420742, "tags": {"addr:district": "Jaipur", "addr:full": "S-8 Amrapali Marg Vaishali Nagar", "addr:postcode": "302021", "addr:state": "Rajasthan", "amenity": "hospital", "name": "Gupta Child andGenral", "source": "OpenGovernmentData"}}, {"type": "node", "id": 7036787752, "lat": 26.9431014, "lon": 75.7600585, "tags": {"addr:district": "Jaipur", "addr:full": "3, Kalwar Road, Near Lata Cinema, Jhotwara", "addr:postcode": "302012", "addr:state": "Rajasthan", "amenity": "hospital", "name": "Gupta Chest And General Hospital", "source": "OpenGovernmentData"}}, {"type": "node", "id": 7036855302, "lat": 26.8461836, "lon": 75.7938087, "tags": {"addr:district": "Jaipur", "addr:full": "Tonk Road Durgapura", "addr:postcode": "302015", "addr:state": "Rajasthan", "amenity": "hospital", "name": "Durgapura Hospital", "source": "OpenGovernmentData"}}, {"type": "node", "id": 7037297424, "lat": 26.8535082, "lon": 75.7898913, "tags": {"addr:district": "Jaipur", "addr:full": "219, Mahaveer Nagar,Durgapur Railway Station,Tonk Raod", "addr:postcode": "302015", "addr:state": "Rajasthan", "amenity": "hospital", "name": "Shree Narayan Chikitsalay", "source": "OpenGovernmentData"}}, {"type": "node", "id": 7037332489, "lat": 26.9429962, "lon": 75.7505755, "tags": {"addr:district": "Jaipur", "addr:full": "C-92, Near Rajasthan Bank, Kalwara Road, Jhotwara", "addr:postcode": "302012", "addr:state": "Rajasthan", "amenity": "hospital", "name": "Shri Brij Fracture Hospital", "source": "OpenGovernmentData"}}, {"type": "node", "id": 7037342479, "lat": 27.0155551, "lon": 75.7042524, "tags": {"addr:district": "Jaipur", "addr:full": "Benar Road, Khora Bisal", "addr:postcode": "303007", "addr:state": "Rajasthan", "amenity": "dentist", "name": "Shri Ganesh Dental Hospital, Jaipur", "source": "OpenGovernmentData"}}, {"type": "node", "id": 7037356085, "lat": 26.8475232, "lon": 75.8270252, "tags": {"addr:district": "Jaipur", "addr:full": "#4, Vishnupuri, Jagatpura Road", "addr:postcode": "302017", "addr:state": "Rajasthan", "amenity": "hospital", "name": "Shri Hospital", "source": "OpenGovernmentData"}}, {"type": "node", "id": 7037481103, "lat": 26.9269572, "lon": 75.7463547, "tags": {"addr:district": "Jaipur", "addr:full": "A-93, Singh Bhoomi Khatipura", "addr:postcode": "302003", "addr:state": "Rajasthan", "amenity": "hospital", "name": "Marudhar Hospital", "source": "OpenGovernmentData"}}, {"type": "node", "id": 7037488089, "lat": 26.89272, "lon": 75.8242251, "tags": {"addr:district": "Jaipur", "addr:full": "C-17, Bhagat Singh Marg, Near Lbs College, Tilak Nagarm", "addr:postcode": "302004", "addr:state": "Rajasthan", "amenity": "hospital", "name": "Ram Avtar Eye Hospital and Glaucoma Pavilion", "source": "OpenGovernmentData"}}, {"type": "node", "id": 7037513017, "lat": 26.8470661, "lon": 75.827457, "tags": {"addr:district": "Jaipur", "addr:full": "9, Vishnupuri, Jagatpura Road,Near Reliance Petroleum, Malviya nagar", "addr:postcode": "302017", "addr:state": "Rajasthan", "amenity": "hospital", "name": "Ram Janki Memorial Vijayvergia Hospital", "source": "OpenGovernmentData"}}, {"type": "node", "id": 7037563460, "lat": 26.8691625, "lon": 75.79438, "tags": {"addr:district": "Jaipur", "addr:full": "D-7, Opposite Samudayik Kendra, Dev Nagar, Tonk Road", "addr:postcode": "302018", "addr:state": "Rajasthan", "amenity": "hospital", "name": "Retina Care Foundation and Eye Hospital", "source": "OpenGovernmentData"}}, {"type": "node", "id": 7037568176, "lat": 26.892304, "lon": 75.7452894, "tags": {"addr:district": "Jaipur", "addr:full": "Opp Dcm Ajmer Road", "addr:postcode": "302019", "addr:state": "Rajasthan", "amenity": "clinic", "healthcare": "clinic", "name": "Roma Nursing Home", "source": "OpenGovernmentData"}}, {"type": "node", "id": 7037598709, "lat": 26.8967648, "lon": 75.8207528, "tags": {"addr:district": "Jaipur", "addr:full": "C- 52, Near Parnami Mandir, Raja Park, Near Ganesh Temple", "addr:postcode": "302004", "addr:state": "Rajasthan", "amenity": "clinic", "name": "Dr.Mehta's Dignostic Clinic", "source": "OpenGovernmentData"}}, {"type": "node", "id": 7037601487, "lat": 26.929235, "lon": 75.783441, "tags": {"amenity": "hospital", "healthcare": "hospital", "name": "Military hospital Jaipur"}}, {"type": "node", "id": 7037606522, "lat": 26.8970829, "lon": 75.8233532, "tags": {"addr:district": "Jaipur", "addr:full": "264, Near Parnami Mandir, Raja Park", "addr:postcode": "302004", "addr:state": "Rajasthan", "amenity": "hospital", "name": "Dr.Mamodias Proctology and IRC Centre", "phone": "9414060257", "source": "OpenGovernmentData", "website": "pilescenter.com"}}, {"type": "node", "id": 7037696459, "lat": 26.8823278, "lon": 75.7471061, "tags": {"addr:district": "Jaipur", "addr:full": "52,Udai Nagar - A, Near Kissan Dharamkanta,Gopalpura Byepass", "addr:postcode": "302019", "addr:state": "Rajasthan", "amenity": "hospital", "name": "Kshitij Hospital and Medical Research Centre", "source": "OpenGovernmentData"}}, {"type": "node", "id": 7037738561, "lat": 26.8710868, "lon": 75.8003439, "tags": {"addr:district": "Jaipur", "addr:full": "A-31B, Anita Colony.Bajaj Nagar,Jaipur", "addr:postcode": "302015", "addr:state": "Rajasthan", "amenity": "hospital", "name": "Krishna Ram Hospital and Research Centre", "source": "OpenGovernmentData"}}, {"type": "node", "id": 7037748710, "lat": 26.9452139, "lon": 75.7429527, "tags": {"addr:district": "Jaipur", "addr:full": "23, Kailashpuri, Kanta Circle, Kalwar Road, Jhotwara", "addr:postcode": "302012", "addr:state": "Rajasthan", "amenity": "hospital", "name": "Krishna Mother and Child Hospital", "source": "OpenGovernmentData"}}, {"type": "node", "id": 7037755802, "lat": 26.9455749, "lon": 75.7971467, "tags": {"addr:district": "Jaipur", "addr:full": "B-11, Major Shaitan Singh Colony, Shastri Nagar", "addr:postcode": "302016", "addr:state": "Rajasthan", "amenity": "clinic", "name": "Krishna Clinic and Nursing Home", "source": "OpenGovernmentData"}}, {"type": "node", "id": 7037995243, "lat": 26.9372945, "lon": 75.7896405, "tags": {"addr:district": "Jaipur", "addr:full": "Plot No. 145, Indra Colony, Jhotwara Road", "addr:postcode": "302016", "addr:state": "Rajasthan", "amenity": "hospital", "name": "Diwakar Orthopedic and General Hospital", "source": "OpenGovernmentData"}}, {"type": "node", "id": 7038140721, "lat": 27.1433081, "lon": 75.7273945, "tags": {"addr:district": "Jaipur", "addr:full": "Rajasthan State Highway 8B, Naya Bajar, Chomu", "addr:postcode": "303702", "addr:state": "Rajasthan", "amenity": "hospital", "name": "Chhoti Devi Memorial Hospital", "source": "OpenGovernmentData"}}, {"type": "node", "id": 7038143732, "lat": 26.9229847, "lon": 75.7236005, "tags": {"addr:district": "Jaipur", "addr:full": "2, Commander Colony, Panchyawala, Sirsi Road", "addr:postcode": "302021", "addr:state": "Rajasthan", "amenity": "hospital", "name": "Rajat Maternity and General Hospital", "source": "OpenGovernmentData"}}, {"type": "node", "id": 7038146063, "lat": 26.8982742, "lon": 75.765447, "tags": {"addr:district": "Jaipur", "addr:full": "S-9, Ajmer Road, Shyam Nagar, Near Vipul Motors, Sodala", "addr:postcode": "302003", "addr:state": "Rajasthan", "amenity": "hospital", "name": "Dwarka Orthopaedic and Trauma Hospital", "source": "OpenGovernmentData"}}, {"type": "node", "id": 7038167921, "lat": 26.9012953, "lon": 75.7702173, "tags": {"addr:district": "Jaipur", "addr:full": "Sodala, Ajmer Road", "addr:postcode": "302006", "addr:state": "Rajasthan", "amenity": "hospital", "name": "Sevayatan Hospital", "source": "OpenGovernmentData"}}, {"type": "node", "id": 7038169412, "lat": 26.9059822, "lon": 75.8130455, "tags": {"addr:district": "Jaipur", "addr:full": "Jaipur", "addr:postcode": "302004", "addr:state": "Rajasthan", "amenity": "hospital", "name": "Kcj Diagnostic and Research Center", "source": "OpenGovernmentData"}}, {"type": "node", "id": 7038208939, "lat": 27.1433129, "lon": 75.7298554, "tags": {"addr:district": "Jaipur", "addr:full": "Radha Swami Bhag,Nh-11,Jaipur Road, Chomu", "addr:postcode": "303702", "addr:state": "Rajasthan", "amenity": "hospital", "name": "Barala Hospital and Research Centre", "source": "OpenGovernmentData"}}, {"type": "node", "id": 7038265808, "lat": 26.9080954, "lon": 75.7908113, "tags": {"addr:district": "Jaipur", "addr:full": "A-2, Jamnnalal Bazaz Marg, C-Scheme", "addr:postcode": "302001", "addr:state": "Rajasthan", "amenity": "hospital", "name": "Dr Agarwals Eye Hospital", "source": "OpenGovernmentData"}}, {"type": "node", "id": 7038265813, "lat": 26.8973861, "lon": 75.7438412, "tags": {"addr:district": "Jaipur", "addr:full": "No. 166, Doctor's Colony,D.C.M.,Ajmer Road", "addr:postcode": "302024", "addr:state": "Rajasthan", "amenity": "hospital", "name": "Agarwal Hospital and Fertility Research Centre", "source": "OpenGovernmentData"}}, {"type": "node", "id": 7038293279, "lat": 26.8598745, "lon": 75.7565609, "tags": {"addr:district": "Jaipur", "addr:full": "Heera Path, Mansarovar", "addr:postcode": "302020", "addr:state": "Rajasthan", "amenity": "hospital", "name": "Deshbandhu E.N.T. Hospital", "source": "OpenGovernmentData"}}, {"type": "node", "id": 7038417542, "lat": 26.9699057, "lon": 75.7446559, "tags": {"addr:district": "Jaipur", "addr:full": "53,54-B, Sanjay Nagar, Kalwar Road, Jhotwara", "addr:postcode": "302012", "addr:state": "Rajasthan", "amenity": "hospital", "name": "Bagree Hospital and Research Centre", "source": "OpenGovernmentData"}}, {"type": "node", "id": 7038417547, "lat": 26.9098833, "lon": 75.8023066, "tags": {"addr:district": "Jaipur", "addr:full": "J-62 Krishna Marg, C-Scheme", "addr:postcode": "302005", "addr:state": "Rajasthan", "amenity": "hospital", "name": "Nirmala Hospital and Research Center", "source": "OpenGovernmentData"}}, {"type": "node", "id": 7038464449, "lat": 26.8972528, "lon": 75.8260462, "tags": {"addr:district": "Jaipur", "addr:full": "B-14/D Govind Marg, Adarsh Nagar", "addr:postcode": "302004", "addr:state": "Rajasthan", "amenity": "hospital", "name": "Raj Khurana Memorial Hospital", "source": "OpenGovernmentData"}}, {"type": "node", "id": 7038935616, "lat": 26.9590726, "lon": 75.7710944, "tags": {"addr:district": "Jaipur", "addr:full": "Deher Ke Balaji Area, Sikar Road", "addr:postcode": "302016", "addr:state": "Rajasthan", "amenity": "hospital", "emergency": "no", "healthcare": "hospital", "name": "Khetan Hospital", "source": "OpenGovernmentData"}}, {"type": "node", "id": 7038935621, "lat": 26.9736181, "lon": 75.7763448, "tags": {"addr:district": "Jaipur", "addr:full": "Sp-6 Road No-1, Viswakarama Industrial Area, Sikar Road", "addr:postcode": "302004", "addr:state": "Rajasthan", "amenity": "hospital", "name": "Malpani Multispeciality Hospital", "source": "OpenGovernmentData"}}, {"type": "node", "id": 7038940663, "lat": 26.9737089, "lon": 75.6260902, "tags": {"addr:district": "Jaipur", "addr:full": "A-97 Kalwar Road", "addr:postcode": "302001", "addr:state": "Rajasthan", "amenity": "hospital", "name": "Prem Hospital", "source": "OpenGovernmentData"}}, {"type": "node", "id": 7039387654, "lat": 26.8974788, "lon": 75.7717301, "tags": {"addr:district": "Jaipur", "addr:full": "18-19, Kailash Puri - A, New Sanganer Road, Opposite Bank Of Baroda, Sodala", "addr:postcode": "302019", "addr:state": "Rajasthan", "amenity": "hospital", "name": "Atulya Hospital", "source": "OpenGovernmentData"}}, {"type": "node", "id": 7039412914, "lat": 26.8860287, "lon": 75.7525188, "tags": {"addr:district": "Jaipur", "addr:full": "34, Shiv Shakti Mnagar, Nirman Nagar", "addr:postcode": "302019", "addr:state": "Rajasthan", "amenity": "hospital", "name": "Ayush Hospital", "source": "OpenGovernmentData"}}, {"type": "node", "id": 7039433534, "lat": 26.8811209, "lon": 75.7815757, "tags": {"addr:district": "Jaipur", "addr:full": "B-494, 80 Feet Road, Mahesh Nagar, Jaipur", "addr:postcode": "302005", "addr:state": "Rajasthan", "amenity": "hospital", "healthcare": "hospital", "name": "Atal Hospital and Reseach Center", "source": "OpenGovernmentData"}}, {"type": "node", "id": 7039479669, "lat": 26.9003923, "lon": 75.8190637, "tags": {"addr:district": "Jaipur", "addr:full": "24, Chetak Marg Near J.K. Lon Hospital, J.L.N. Marg", "addr:postcode": "302017", "addr:state": "Rajasthan", "amenity": "hospital", "name": "Arya Hospital- Jaipur", "source": "OpenGovernmentData"}}, {"type": "node", "id": 7039514016, "lat": 26.9136323, "lon": 75.8127075, "tags": {"addr:district": "Jaipur", "addr:full": "J-2/37, Mahaveer Marg", "addr:postcode": "302004", "addr:state": "Rajasthan", "amenity": "hospital", "name": "Nova Specialty Surgery", "source": "OpenGovernmentData"}}, {"type": "node", "id": 7039515196, "lat": 26.9243777, "lon": 75.7892007, "tags": {"addr:district": "Jaipur", "addr:full": "Ke-3, Kabir Marg , Bani Park", "addr:postcode": "302001", "addr:state": "Rajasthan", "amenity": "hospital", "name": "Shah Hospital, Jaipur", "source": "OpenGovernmentData"}}, {"type": "node", "id": 7039556018, "lat": 26.9128574, "lon": 75.7970139, "tags": {"addr:district": "Jaipur", "addr:full": "R 8/A, Yudhishtar Marg Behind Ashok Nagar Police Station", "addr:postcode": "302001", "addr:state": "Rajasthan", "amenity": "hospital", "name": "Sr Kalla Memorial Gastro and General Hospital", "source": "OpenGovernmentData"}}, {"type": "node", "id": 7039567318, "lat": 26.9139408, "lon": 75.7984489, "tags": {"addr:district": "Jaipur", "addr:full": "50,Dhuleshwar Bagh, C-Scheme", "addr:postcode": "302001", "addr:state": "Rajasthan", "amenity": "hospital", "name": "Dhuleshwar Hospital and Laser Skin Centre", "source": "OpenGovernmentData"}}, {"type": "node", "id": 7039598105, "lat": 26.9319799, "lon": 75.8276729, "tags": {"addr:district": "Jaipur", "addr:full": "99 Kanwar Nagar", "addr:postcode": "303103", "addr:state": "Rajasthan", "amenity": "clinic", "name": "Poonam Nursing Home", "source": "OpenGovernmentData"}}, {"type": "node", "id": 7039684189, "lat": 26.9147732, "lon": 75.7955489, "tags": {"addr:district": "Jaipur", "addr:full": "15-16, Hathroi Market, Ajmer Road", "addr:postcode": "302001", "addr:state": "Rajasthan", "amenity": "clinic", "healthcare": "clinic", "name": "Welfare Clinic, Jaipur", "source": "OpenGovernmentData"}}, {"type": "node", "id": 7039702397, "lat": 26.9144575, "lon": 75.7962348, "tags": {"addr:district": "Jaipur", "addr:full": "62-A,Dhuleshwar Garden,C-Scheme", "addr:postcode": "302001", "addr:state": "Rajasthan", "amenity": "hospital", "name": "Vivekanand Hospital and Fertility Centre", "source": "OpenGovernmentData", "website": "https://www.vivekanandfertility.com"}}, {"type": "node", "id": 7039952681, "lat": 26.858026, "lon": 75.7572716, "tags": {"addr:district": "Jaipur", "addr:full": "67/56 -A, Near Mandra Bus Stand, New Sanganer Road, Mansarovar", "addr:postcode": "302020", "addr:state": "Rajasthan", "amenity": "hospital", "name": "Dhanvantari Hospital,Jaipur", "source": "OpenGovernmentData", "website": "https://dhanwantrihospital.com/"}}, {"type": "node", "id": 7039981955, "lat": 26.9715839, "lon": 75.7708263, "tags": {"addr:district": "Jaipur", "addr:full": "Murlipura, Sikar Road", "addr:postcode": "302013", "addr:state": "Rajasthan", "amenity": "hospital", "name": "Pink City Heart and General Hospital", "source": "OpenGovernmentData"}}, {"type": "node", "id": 7039989682, "lat": 26.8042285, "lon": 75.8093964, "tags": {"addr:district": "Jaipur", "addr:full": "Sector-6, Zone -68 Pratap Nagar Sanganer", "addr:postcode": "302033", "addr:state": "Rajasthan", "amenity": "hospital", "name": "Prakash Mother and Child Hospital", "source": "OpenGovernmentData"}}, {"type": "node", "id": 7039990476, "lat": 26.8959216, "lon": 75.8198114, "tags": {"addr:district": "Jaipur", "addr:full": "Bhabha Marg, Moti Dungri", "addr:postcode": "302005", "addr:state": "Rajasthan", "amenity": "hospital", "name": "Sahai Hospital and Research Centre", "source": "OpenGovernmentData"}}, {"type": "node", "id": 7039998078, "lat": 26.857502, "lon": 75.8131421, "tags": {"addr:district": "Jaipur", "addr:full": "C-6, Malviya Nagar, Opp.Saint Anselam School", "addr:postcode": "302017", "addr:state": "Rajasthan", "amenity": "hospital", "name": "Agrasen Orthopaedic Hospital", "source": "OpenGovernmentData"}}, {"type": "node", "id": 7040013480, "lat": 26.8546041, "lon": 75.8248325, "tags": {"addr:district": "Jaipur", "addr:full": "Sp-3 Central Road, Malviya Industrial Area, Near Calgary Eye Hospital Malviya Nagar", "addr:postcode": "302017", "addr:state": "Rajasthan", "amenity": "hospital", "name": "Agrawal Hospital", "source": "OpenGovernmentData"}}, {"type": "node", "id": 7040014655, "lat": 26.8189556, "lon": 75.542762, "tags": {"addr:district": "Jaipur", "addr:full": "H-158, Old RIICO,Link Road,Behind Bsnl Tower,Bagru", "addr:postcode": "303007", "addr:state": "Rajasthan", "amenity": "hospital", "name": "Agrawal Heart and General Hospital ( Bagru )", "source": "OpenGovernmentData"}}, {"type": "node", "id": 7040017904, "lat": 26.886207, "lon": 75.764979, "tags": {"addr:district": "Jaipur", "addr:full": "76, Devi Nagar, New Sanganer Road, Sadola", "addr:postcode": "302019", "addr:state": "Rajasthan", "amenity": "hospital", "name": "Agrasen Hospital", "source": "OpenGovernmentData"}}, {"type": "node", "id": 7040020566, "lat": 26.8521418, "lon": 75.8103311, "tags": {"addr:district": "Jaipur", "addr:full": "Brain - Tower, D-358, Malviyanagar, Near Gaurav Tower", "addr:postcode": "302017", "addr:state": "Rajasthan", "amenity": "hospital", "name": "Advanced Neurology and Superspeciality Hospital", "source": "OpenGovernmentData", "website": "https://www.thebraintower.com/"}}, {"type": "node", "id": 7040026262, "lat": 26.8972534, "lon": 75.7392506, "tags": {"addr:district": "Jaipur", "addr:full": "No. B-9/632, Chitrakoot Scheme,Ajmer Road", "addr:postcode": "302021", "addr:state": "Rajasthan", "amenity": "hospital", "name": "Aditi General and Eye Hospital", "source": "OpenGovernmentData"}}, {"type": "node", "id": 7040044511, "lat": 26.8477082, "lon": 75.7698276, "tags": {"addr:district": "Jaipur", "addr:full": "111/196, Vijay Path Chauraha, Agarwal Farm, Mansarovar", "addr:postcode": "302020", "addr:state": "Rajasthan", "amenity": "hospital", "name": "Mansarovar Hospital", "source": "OpenGovernmentData"}}, {"type": "node", "id": 7040045984, "lat": 26.8902546, "lon": 75.7993931, "tags": {"addr:district": "Jaipur", "addr:full": "R-5, Indrapuri, Lal-Kothi", "addr:postcode": "302015", "addr:state": "Rajasthan", "amenity": "hospital", "name": "Aditya Hospital, Jaipur", "source": "OpenGovernmentData", "website": "adityahospitaljaipur.in"}}, {"type": "node", "id": 7040054427, "lat": 26.9310577, "lon": 75.8198824, "tags": {"addr:district": "Jaipur", "addr:full": "Gangori Bazar", "addr:postcode": "302001", "addr:state": "Rajasthan", "amenity": "clinic", "name": "Malpani Nursing Home", "source": "OpenGovernmentData"}}, {"type": "node", "id": 7040058512, "lat": 26.8785299, "lon": 75.7667412, "tags": {"addr:district": "Jaipur", "addr:full": "4, Moti Nagar, Gurjar Ki Thadi, New Sanganer Road", "addr:postcode": "302019", "addr:state": "Rajasthan", "amenity": "hospital", "name": "Swasthya Mangalam Family Health Centre", "source": "OpenGovernmentData"}}, {"type": "node", "id": 7040062370, "lat": 26.9057163, "lon": 75.7493268, "tags": {"addr:district": "Jaipur", "addr:full": "195, Gandhi Path , Queens Road", "addr:postcode": "302001", "addr:state": "Rajasthan", "amenity": "hospital", "healthcare": "hospital", "name": "Aarogya Hospital, Jaipur", "source": "OpenGovernmentData"}}, {"type": "node", "id": 7040078410, "lat": 26.9026778, "lon": 75.7394618, "tags": {"addr:district": "Jaipur", "addr:full": "Gandhi Path ,Vidhyut Nagar", "addr:postcode": "302021", "addr:state": "Rajasthan", "amenity": "hospital", "name": "Adarsh Hospital, Jaipur", "source": "OpenGovernmentData"}}, {"type": "node", "id": 7040100239, "lat": 26.8589843, "lon": 75.7696433, "tags": {"addr:district": "Jaipur", "addr:full": "Sec-7, Shipa Path, Madhyam Marg, Mansarovar", "addr:postcode": "302020", "addr:state": "Rajasthan", "amenity": "hospital", "name": "Tagore Hospital and Research Institute", "source": "OpenGovernmentData"}}, {"type": "node", "id": 7040101983, "lat": 26.8990259, "lon": 75.779359, "tags": {"addr:district": "Jaipur", "addr:full": "#23, Brij Colony,Behind Rseb Office, ,Hawa Sadak, Civil Lines", "addr:postcode": "302006", "addr:state": "Rajasthan", "amenity": "hospital", "name": "Pooja Hospital and Medical Research Centre", "source": "OpenGovernmentData"}}, {"type": "node", "id": 7040112693, "lat": 26.9754061, "lon": 75.7651426, "tags": {"addr:district": "Jaipur", "addr:full": "E-466, Lal Dibba Bus Stop,Murlipura Scheme,Opposite Vki Road No.2,Sikar Road", "addr:postcode": "302001", "addr:state": "Rajasthan", "amenity": "hospital", "name": "Narmada Hospital and Diagnostic Centre", "source": "OpenGovernmentData"}}, {"type": "node", "id": 7040112723, "lat": 26.8630701, "lon": 75.8055353, "tags": {"addr:district": "Jaipur", "addr:full": "Jawahar Lal Nehru Marg", "addr:postcode": "302015", "addr:state": "Rajasthan", "amenity": "hospital", "name": "Bhagwan Mahaveer Cancer Hospital and Research Center", "source": "OpenGovernmentData"}}, {"type": "node", "id": 7040112739, "lat": 26.929878, "lon": 75.8011875, "tags": {"addr:district": "Jaipur", "addr:full": "Kartavya, B-13 Shiv Marg,Bani Park Jaipur", "addr:postcode": "302016", "addr:state": "Rajasthan", "amenity": "hospital", "name": "Meera Hospital, Jaipur", "source": "OpenGovernmentData"}}, {"type": "node", "id": 7040112750, "lat": 26.936564, "lon": 75.7563302, "tags": {"addr:district": "Jaipur", "addr:full": "Plot No:- 1 & 2, Ashok Watika Khatipur Road Jhotwara", "addr:postcode": "302012", "addr:state": "Rajasthan", "amenity": "hospital", "name": "Deep Hospital and Research Centre", "source": "OpenGovernmentData"}}, {"type": "node", "id": 7040112760, "lat": 26.8662829, "lon": 75.7643916, "tags": {"addr:district": "Jaipur", "addr:full": "Mohana Road, Jai Singh Pura, Ajmer Road, Near Anukampa Group", "addr:postcode": "302001", "addr:state": "Rajasthan", "amenity": "hospital", "name": "Chirag Hospital", "source": "OpenGovernmentData"}}, {"type": "node", "id": 7040117130, "lat": 26.8471475, "lon": 75.8087178, "tags": {"addr:district": "Jaipur", "addr:full": "Main Road, Sector 9, Malviya Nagar", "addr:postcode": "302018", "addr:state": "Rajasthan", "amenity": "hospital", "name": "Solomon Hospital", "source": "OpenGovernmentData"}}, {"type": "node", "id": 7040117143, "lat": 26.9359662, "lon": 75.7957385, "tags": {"addr:district": "Jaipur", "addr:full": "103, Shastri Nagar Road Near Pital Factory", "addr:postcode": "302016", "addr:state": "Rajasthan", "amenity": "hospital", "name": "Maharshi Child Hospital", "source": "OpenGovernmentData"}}, {"type": "node", "id": 7040129019, "lat": 26.8979859, "lon": 75.7679924, "tags": {"addr:district": "Jaipur", "addr:full": "A-1-A Shyam Nagar Sodala", "addr:postcode": "302019", "addr:state": "Rajasthan", "amenity": "hospital", "name": "Manu Hospital and Research Center", "source": "OpenGovernmentData"}}, {"type": "node", "id": 7040132676, "lat": 26.8636772, "lon": 75.754806, "tags": {"addr:district": "Jaipur", "addr:full": "48/110, Rajat Path, Mansarovar", "addr:postcode": "302020", "addr:state": "Rajasthan", "amenity": "clinic", "name": "Purvi Nursing Home and Diagnostic Center", "source": "OpenGovernmentData"}}, {"type": "node", "id": 7040134143, "lat": 26.9469485, "lon": 75.79714, "tags": {"addr:district": "Jaipur", "addr:full": "A 53a, Near Jain Mandir,Amanisha Road Shastri Nagar", "addr:postcode": "302016", "addr:state": "Rajasthan", "amenity": "hospital", "name": "Sonkhiya Hospital", "source": "OpenGovernmentData"}}, {"type": "node", "id": 7040142166, "lat": 26.928861, "lon": 75.7972808, "tags": {"addr:district": "Jaipur", "addr:full": "B-5,Shiv Marg,Bani Park", "addr:postcode": "302016", "addr:state": "Rajasthan", "amenity": "hospital", "name": "Satellite Hospital, Jaipur", "source": "OpenGovernmentData"}}, {"type": "node", "id": 7040143007, "lat": 26.8823601, "lon": 75.7991289, "tags": {"addr:district": "Jaipur", "addr:full": "B-35-36 Lalkothi Shopping Centre Tank Road", "addr:postcode": "302015", "addr:state": "Rajasthan", "amenity": "hospital", "name": "Rajasthan Hopsital and Gastroenology Centre", "source": "OpenGovernmentData"}}, {"type": "node", "id": 7040146307, "lat": 26.8830108, "lon": 75.7929209, "tags": {"addr:district": "Jaipur", "addr:full": "1, J.P. Colony, Main Road, Laxmi Mandir Phatak, Tonk Road", "addr:postcode": "302001", "addr:state": "Rajasthan", "amenity": "hospital", "name": "Sun Hospital", "source": "OpenGovernmentData"}}, {"type": "node", "id": 7040147102, "lat": 26.893209, "lon": 75.7630987, "tags": {"addr:district": "Jaipur", "addr:full": "B, 106, Janpath, Shyam Nagar", "addr:postcode": "302019", "addr:state": "Rajasthan", "amenity": "hospital", "name": "Bansal Hospital,Jaipur", "source": "OpenGovernmentData"}}, {"type": "node", "id": 7040170022, "lat": 26.8718913, "lon": 75.695326, "tags": {"addr:district": "Jaipur", "addr:full": "10-11,Near Colony,Bhankrot, Ajmer Road", "addr:postcode": "302019", "addr:state": "Rajasthan", "amenity": "hospital", "name": "Dulet Hospital", "source": "OpenGovernmentData"}}, {"type": "node", "id": 7040171028, "lat": 26.8794587, "lon": 75.7739865, "tags": {"addr:district": "Jaipur", "addr:full": "277, Shri Gopal Nagar, 80 Feet Road, Gopal Pura, Byepass Road", "addr:postcode": "302019", "addr:state": "Rajasthan", "amenity": "hospital", "name": "Somani Hospital", "source": "OpenGovernmentData"}}, {"type": "node", "id": 7040172653, "lat": 26.9212879, "lon": 75.7412669, "tags": {"addr:district": "Jaipur", "addr:full": "No. 203, Officers Campus,Sirsi Road,Khatipura", "addr:postcode": "302021", "addr:state": "Rajasthan", "amenity": "hospital", "name": "Metro Hospital and Research Centre, Jaipur", "source": "OpenGovernmentData"}}, {"type": "node", "id": 7040178950, "lat": 26.8798062, "lon": 75.7574882, "tags": {"addr:district": "Jaipur", "addr:full": "377, Shri Gopal Nagar, Gujjar Ki Thadi, Gopalpura Bypass", "addr:postcode": "302019", "addr:state": "Rajasthan", "amenity": "hospital", "name": "Siddham E N T Center", "source": "OpenGovernmentData"}}, {"type": "node", "id": 7040181512, "lat": 26.8511271, "lon": 75.8070253, "tags": {"addr:district": "Jaipur", "addr:full": "C-401, Malviya Nagar", "addr:postcode": "302017", "addr:state": "Rajasthan", "amenity": "hospital", "name": "Eye Surgery and Laser Centre", "source": "OpenGovernmentData"}}, {"type": "node", "id": 7040185404, "lat": 26.8472755, "lon": 75.7756864, "tags": {"addr:district": "Jaipur", "addr:full": "116/208, Shipra Path, Agarwal Farm, Mansarover", "addr:postcode": "302020", "addr:state": "Rajasthan", "amenity": "hospital", "name": "G M R C Hospital", "source": "OpenGovernmentData"}}, {"type": "node", "id": 7040185975, "lat": 26.8444073, "lon": 75.7739791, "tags": {"addr:district": "Jaipur", "addr:full": "115, Tagor Path Sector 8, Agarwal Farm Mansarowar", "addr:postcode": "302001", "addr:state": "Rajasthan", "amenity": "hospital", "name": "Liberty Hospital, Jaipur", "source": "OpenGovernmentData"}}, {"type": "node", "id": 7040194284, "lat": 26.874099, "lon": 75.804105, "tags": {"addr:district": "Jaipur", "addr:full": "Bajaj Nagar", "addr:state": "Rajasthan", "amenity": "clinic", "name": "CGHS Polyclinic, A.G.Colony", "operator:type": "government", "source": "OpenGovernmentData", "website": "http://nb.bsf.gov.in/CGHS%20DIspenseries.pdf"}}, {"type": "node", "id": 7040206604, "lat": 26.9024888, "lon": 75.7763958, "tags": {"addr:district": "Jaipur", "addr:full": "1, Hawa Sarak, Civil Lines", "addr:postcode": "302006", "addr:state": "Rajasthan", "amenity": "hospital", "name": "Swaroop Hospital", "source": "OpenGovernmentData"}}, {"type": "node", "id": 7040215093, "lat": 26.8752677, "lon": 75.6897772, "tags": {"addr:district": "Jaipur", "addr:full": "Mukundpura Road, Bhankrota, Ajmer Road", "addr:postcode": "302026", "addr:state": "Rajasthan", "amenity": "hospital", "name": "Kandoi Hospital", "source": "OpenGovernmentData"}}, {"type": "node", "id": 7040217320, "lat": 26.8941293, "lon": 75.7708476, "tags": {"addr:district": "Jaipur", "addr:full": "D-135, Jawpath, New Sanganer Road", "addr:postcode": "302019", "addr:state": "Rajasthan", "amenity": "hospital", "name": "Dr. Goyal's Path Lab and Imaging Centre", "source": "OpenGovernmentData"}}, {"type": "node", "id": 7040227986, "lat": 26.905334, "lon": 75.8132896, "tags": {"addr:district": "Jaipur", "addr:full": "B-6(F)Adinath Marg,C-Scheme", "addr:postcode": "302001", "addr:state": "Rajasthan", "amenity": "clinic", "name": "Dr. K.C. KASLIWAL Ear,Nose and Throat Centre", "source": "OpenGovernmentData"}}, {"type": "node", "id": 7040301742, "lat": 26.8504637, "lon": 75.7729371, "tags": {"addr:district": "Jaipur", "addr:full": "93 60 Shipra Path Mansarover", "addr:postcode": "302020", "addr:state": "Rajasthan", "amenity": "hospital", "name": "Dr Naresh Goyal Orthopadic Hospital", "source": "OpenGovernmentData"}}, {"type": "node", "id": 7040325916, "lat": 26.8025515, "lon": 75.8086145, "tags": {"addr:district": "Jaipur", "addr:full": "Sector 5, Tork Road, Pratap Nagar, Sanganer", "addr:postcode": "302005", "addr:state": "Rajasthan", "amenity": "hospital", "name": "Star Women and General Hospital", "source": "OpenGovernmentData"}}, {"type": "node", "id": 7040336692, "lat": 26.8810467, "lon": 75.8007932, "tags": {"addr:district": "Jaipur", "addr:full": "Tonk Phatak, Behind Mahindra Showroom, Opp Sahara Chambers, Gandhi Nagar, Tonk Road, Jaipur Clinic - 104, Shyam Anukampa, Opp Hdfc, Ashok Marg, C-Scheme", "addr:postcode": "302015", "addr:state": "Rajasthan", "amenity": "hospital", "name": "Dr. Virendra Laser and Phaco Surgery Centre - Jaipur", "source": "OpenGovernmentData"}}, {"type": "node", "id": 7040383878, "lat": 26.9778323, "lon": 75.7729612, "tags": {"addr:district": "Jaipur", "addr:full": "5, Kalyan Nagar, Opposite Road No.4, Vk I Area, Sikar Road", "addr:postcode": "302013", "addr:state": "Rajasthan", "amenity": "hospital", "name": "Om Ent Hospital, Jaipur", "source": "OpenGovernmentData"}}, {"type": "node", "id": 7040387295, "lat": 26.9318006, "lon": 75.793002, "tags": {"addr:district": "Jaipur", "addr:full": "D-78 Ghiya Marg, Bani Park", "addr:postcode": "302016", "addr:state": "Rajasthan", "amenity": "hospital", "name": "Dr Sardar Singh Memorial Hospital(Managed By M/S Kamal Clinic and Nursing Home)", "source": "OpenGovernmentData"}}, {"type": "node", "id": 7040396604, "lat": 26.9026061, "lon": 75.7708114, "tags": {"addr:district": "Jaipur", "addr:full": "Sodala", "addr:postcode": "302019", "addr:state": "Rajasthan", "amenity": "hospital", "name": "Kabra Eye Hospital", "source": "OpenGovernmentData"}}, {"type": "node", "id": 7040396609, "lat": 26.8863068, "lon": 75.7681916, "tags": {"addr:district": "Jaipur", "addr:full": "4, Vishwa Nagar, New Sanganer Road, Sodala", "addr:postcode": "302019", "addr:state": "Rajasthan", "amenity": "hospital", "name": "Jee Hospital and Research Centre", "source": "OpenGovernmentData"}}, {"type": "node", "id": 7040401357, "lat": 26.9390102, "lon": 75.7809287, "tags": {"addr:district": "Jaipur", "addr:full": "Near Ambawari Bridge Jhotwara Road", "addr:postcode": "302012", "addr:state": "Rajasthan", "amenity": "hospital", "healthcare": "hospital", "name": "Dr.Chauhan Orthopadic centre", "source": "OpenGovernmentData"}}, {"type": "node", "id": 7040409548, "lat": 26.8948679, "lon": 75.7963836, "tags": {"addr:district": "Jaipur", "addr:full": "Jyoti Nagar", "addr:state": "Rajasthan", "amenity": "clinic", "health_facility:type": "dispensary", "healthcare": "centre", "name": "CGHS Dispensary No.5, Income Tax Colony", "operator:type": "government", "source": "OpenGovernmentData", "website": "http://nb.bsf.gov.in/CGHS%20DIspenseries.pdf"}}, {"type": "node", "id": 7040424595, "lat": 26.8860078, "lon": 75.7655959, "tags": {"addr:district": "Jaipur", "addr:full": "413, Vivek Vihar, New Sanganer Road", "addr:postcode": "302019", "addr:state": "Rajasthan", "amenity": "hospital", "name": "Neha Maternity and Ent Hospital", "source": "OpenGovernmentData"}}, {"type": "node", "id": 7040431728, "lat": 26.9086862, "lon": 75.7388422, "tags": {"addr:district": "Jaipur", "addr:full": "305, Vinayak Enclave, Opposite Post Office, Between Nursery & Amrapali Circle, Vaishali Nagar", "addr:postcode": "302021", "addr:state": "Rajasthan", "amenity": "hospital", "name": "Max Vision Eye Care Centre", "source": "OpenGovernmentData"}}, {"type": "node", "id": 7040432235, "lat": 26.9344657, "lon": 75.7975852, "tags": {"addr:district": "Jaipur", "addr:full": "37, Shopping Centre Shastri Nagar Road Near Peetal Factory", "addr:postcode": "302016", "addr:state": "Rajasthan", "amenity": "hospital", "name": "Dr Atuls Child Hospital", "source": "OpenGovernmentData"}}, {"type": "node", "id": 7040438275, "lat": 26.9481632, "lon": 75.7444661, "tags": {"addr:district": "Jaipur", "addr:full": "P.N. 50 Laxmi Nagar, Near Hanuman Mandir 80 Feet Road Kanta Circle Jhotwara", "addr:postcode": "302012", "addr:state": "Rajasthan", "amenity": "clinic", "name": "Raj Nursing Home, Jaipur", "source": "OpenGovernmentData"}}, {"type": "node", "id": 7040445632, "lat": 26.8924184, "lon": 75.7791491, "tags": {"addr:district": "Jaipur", "addr:full": "D-18, Sundervihar Swej Farm", "addr:postcode": "302006", "addr:state": "Rajasthan", "amenity": "hospital", "name": "Chandra Bhan Hospital", "source": "OpenGovernmentData"}}, {"type": "node", "id": 7040459777, "lat": 26.8679919, "lon": 75.7683358, "tags": {"addr:district": "Jaipur", "addr:full": "Manas Arogya Sadan,Shipra Path,Near Technology Park,Mansarovar", "addr:postcode": "302020", "addr:state": "Rajasthan", "amenity": "hospital", "name": "Metro Mas Heart Care and Miltispeciality Hospital", "source": "OpenGovernmentData"}}, {"type": "node", "id": 7040460937, "lat": 26.867048, "lon": 75.7666688, "tags": {"addr:district": "Jaipur", "addr:full": "51/29, Shipra Path, Opposite Technology Park, Mansarovar", "addr:postcode": "302020", "addr:state": "Rajasthan", "amenity": "hospital", "name": "Puru Eye Hospital and Phaco Surgery Centre", "source": "OpenGovernmentData"}}, {"type": "node", "id": 7040465304, "lat": 26.9565002, "lon": 75.6854394, "tags": {"addr:district": "Jaipur", "addr:full": "Hathoj, Kalwar Road", "addr:postcode": "303706", "addr:state": "Rajasthan", "amenity": "hospital", "name": "Sardarmal Khandaka Memorial Hospital", "source": "OpenGovernmentData"}}, {"type": "node", "id": 7040488133, "lat": 26.9143851, "lon": 75.8241183, "tags": {"addr:district": "Jaipur", "addr:full": "Sanganeri Gate", "addr:postcode": "302003", "addr:state": "Rajasthan", "amenity": "hospital", "name": "Mahila Chikitsalya", "source": "OpenGovernmentData"}}, {"type": "node", "id": 7040497136, "lat": 26.8564198, "lon": 75.767114, "tags": {"addr:district": "Jaipur", "addr:full": "71/79, Agarwal Farm,Opp - Kendriya Vidyalaya - No.5, Mansarovar", "addr:postcode": "302020", "addr:state": "Rajasthan", "amenity": "hospital", "name": "Misra Eye Hospital", "source": "OpenGovernmentData"}}, {"type": "node", "id": 7040514654, "lat": 26.9541386, "lon": 75.7699947, "tags": {"addr:district": "Jaipur", "addr:full": "27 Dehar Ka Balaji Ratan Nagar ,Kalwar Road", "addr:postcode": "302012", "addr:state": "Rajasthan", "amenity": "hospital", "name": "Balaji Hospital and Orthopaedic", "source": "OpenGovernmentData"}}, {"type": "node", "id": 7040532092, "lat": 26.8186809, "lon": 75.5431388, "tags": {"addr:district": "Jaipur", "addr:full": "Link Road, Bagru", "addr:postcode": "303007", "addr:state": "Rajasthan", "amenity": "clinic", "name": "Bagru Nursing Home", "source": "OpenGovernmentData"}}, {"type": "node", "id": 7040552833, "lat": 26.9212045, "lon": 75.7422278, "tags": {"addr:district": "Jaipur", "addr:full": "B-67, Main Road", "addr:postcode": "302012", "addr:state": "Rajasthan", "amenity": "hospital", "name": "Thar Hospital Pvt. Ltd.", "source": "OpenGovernmentData"}}, {"type": "node", "id": 7040571420, "lat": 26.8650943, "lon": 75.8007684, "tags": {"addr:district": "Jaipur", "addr:full": "E-19, New Light Colony, Tonk Phatak", "addr:postcode": "302015", "addr:state": "Rajasthan", "amenity": "hospital", "name": "Nalini Hospital", "source": "OpenGovernmentData"}}, {"type": "node", "id": 7040591725, "lat": 26.887387, "lon": 75.7925528, "tags": {"addr:district": "Jaipur", "addr:full": "4, Janakpuri First, Imliwala Phatak Imliwala Phatak", "addr:postcode": "302005", "addr:state": "Rajasthan", "amenity": "hospital", "name": "Bansal Hospital and Research Center", "source": "OpenGovernmentData"}}, {"type": "node", "id": 7040598132, "lat": 26.8967008, "lon": 75.7520065, "tags": {"addr:district": "Jaipur", "addr:full": "11, Vidhyut Nagar, Ajmer Road", "addr:postcode": "302019", "addr:state": "Rajasthan", "amenity": "hospital", "name": "Deenbandhu Hospital", "source": "OpenGovernmentData"}}, {"type": "node", "id": 7040614880, "lat": 26.8669499, "lon": 75.7819151, "tags": {"addr:district": "Jaipur", "addr:full": "68, Vishvaisariya Nagar, Triveni Nagar Mod, Gopalpura Bye Pass", "addr:postcode": "302018", "addr:state": "Rajasthan", "amenity": "hospital", "name": "D. C. Hospital", "source": "OpenGovernmentData"}}, {"type": "node", "id": 7040932161, "lat": 26.9264941, "lon": 75.7856145, "tags": {"addr:district": "Jaipur", "addr:full": "D-143/A, Kaushalya Path, Basant Marg, Banipark", "addr:state": "Rajasthan", "amenity": "clinic", "health_facility:type": "dispensary", "healthcare": "centre", "name": "CGHS Dispensary No.4", "operator:type": "government", "source": "OpenGovernmentData", "website": "http://nb.bsf.gov.in/CGHS%20DIspenseries.pdf"}}, {"type": "node", "id": 7040985055, "lat": 26.9342445, "lon": 75.7985401, "tags": {"addr:district": "Jaipur", "addr:full": "A-7, Mukherjee Colony Shastri Nagar", "addr:postcode": "302016", "addr:state": "Rajasthan", "amenity": "hospital", "name": "Dugra Devi Memorial Hospital", "source": "OpenGovernmentData"}}, {"type": "node", "id": 7042738773, "lat": 26.8436989, "lon": 75.7945731, "tags": {"addr:district": "Jaipur", "addr:full": "Plot No. 14, Airport Plaza,Tonk Road , Durgapura", "addr:postcode": "302016", "addr:state": "Rajasthan", "amenity": "hospital", "name": "Cocoon Hospital", "source": "OpenGovernmentData", "website": "https://www.cocoon.co.in/"}}, {"type": "node", "id": 7042855467, "lat": 26.8816311, "lon": 75.805087, "tags": {"addr:district": "Jaipur", "addr:full": "c-630,Gandhi Nagar", "addr:postcode": "302016", "addr:state": "Rajasthan", "amenity": "hospital", "name": "Tb Hospital", "source": "OpenGovernmentData"}}, {"type": "node", "id": 7042863527, "lat": 26.8648838, "lon": 75.7591787, "tags": {"addr:district": "Jaipur", "addr:full": "56/122, Sector - 5, Vidhyanchal Marg, Rajat Path, Mansarovar", "addr:postcode": "302020", "addr:state": "Rajasthan", "amenity": "hospital", "name": "Priti Maternity and General Hospital", "source": "OpenGovernmentData"}}, {"type": "node", "id": 7042863528, "lat": 26.9322525, "lon": 75.7918172, "tags": {"addr:district": "Jaipur", "addr:full": "F-58, Kalidas Marg, Bani Park", "addr:postcode": "302016", "addr:state": "Rajasthan", "amenity": "hospital", "name": "Dr. Panicker's Sanjeevani Hospital Pvt. Ltd.", "source": "OpenGovernmentData"}}, {"type": "node", "id": 7042869527, "lat": 26.9116018, "lon": 75.8070669, "tags": {"addr:district": "Jaipur", "addr:full": "C-30, Bhagwandas Road, C- Scheme", "addr:housenumber": "Sahabhagita Road, Krishi Nagar Vistar, Beelwa, Sukhdeopura Nohara, Jaipur, Rajasthan 302905", "addr:postcode": "302001", "addr:state": "Rajasthan", "amenity": "clinic", "name": "Rajdhani Clinic and Nursing Home", "source": "OpenGovernmentData"}}, {"type": "node", "id": 7042869534, "lat": 26.9372802, "lon": 75.795701, "tags": {"addr:district": "Jaipur", "addr:full": "Subhash Nagar Jhotwara", "addr:postcode": "303103", "addr:state": "Rajasthan", "amenity": "hospital", "name": "T.B. Cenetorium", "source": "OpenGovernmentData"}}, {"type": "node", "id": 7042872239, "lat": 26.8695507, "lon": 75.773275, "tags": {"addr:district": "Jaipur", "addr:full": "119, Keshav Vihar, Gopalpura Bypass", "addr:postcode": "302018", "addr:state": "Rajasthan", "amenity": "hospital", "name": "Lifecare Hospital, Jaipur", "source": "OpenGovernmentData"}}, {"type": "node", "id": 7042872255, "lat": 26.93543, "lon": 75.7980855, "tags": {"addr:district": "Jaipur", "addr:full": "Shastri Nagar Jaipur", "addr:postcode": "302016", "addr:state": "Rajasthan", "amenity": "hospital", "name": "Dr.M.R.Grewal Memorial Hospital", "source": "OpenGovernmentData"}}, {"type": "node", "id": 7042947566, "lat": 26.8456402, "lon": 75.7701077, "tags": {"addr:district": "Jaipur", "addr:full": "122/218- 219, Agrawal Farm, Mansarover", "addr:postcode": "302020", "addr:state": "Rajasthan", "amenity": "hospital", "name": "Tarani General Hospital", "source": "OpenGovernmentData"}}, {"type": "node", "id": 7043371160, "lat": 26.9162526, "lon": 75.7866588, "tags": {"amenity": "hospital", "healthcare": "hospital", "name": "Railway Hospital", "name:hi": "\u0930\u0947\u0932\u0935\u0947 \u0939\u0949\u0938\u094d\u092a\u093f\u091f\u0932"}}, {"type": "node", "id": 7049461143, "lat": 26.9450782, "lon": 75.7352074, "tags": {"amenity": "hospital", "healthcare": "hospital", "name": "MAXX Hospital"}}, {"type": "node", "id": 7051030700, "lat": 26.9120264, "lon": 75.742092}, {"type": "node", "id": 7051030701, "lat": 26.9120343, "lon": 75.7423677}, {"type": "node", "id": 7051030702, "lat": 26.9117072, "lon": 75.7423795}, {"type": "node", "id": 7051030703, "lat": 26.9116997, "lon": 75.7421174}, {"type": "node", "id": 7051030704, "lat": 26.9117683, "lon": 75.7421149}, {"type": "node", "id": 7051030705, "lat": 26.9117654, "lon": 75.7420157}, {"type": "node", "id": 7051030706, "lat": 26.911935, "lon": 75.7420095}, {"type": "node", "id": 7051030707, "lat": 26.9119375, "lon": 75.7420952}, {"type": "node", "id": 7098288528, "lat": 26.91194, "lon": 75.7415418}, {"type": "node", "id": 7098288529, "lat": 26.9117904, "lon": 75.7415493}, {"type": "node", "id": 7098288530, "lat": 26.9117891, "lon": 75.7415152}, {"type": "node", "id": 7098288531, "lat": 26.911702, "lon": 75.7415196}, {"type": "node", "id": 7098288532, "lat": 26.9117075, "lon": 75.7416574}, {"type": "node", "id": 7098288533, "lat": 26.9117507, "lon": 75.7416553}, {"type": "node", "id": 7098288534, "lat": 26.9117536, "lon": 75.7417287}, {"type": "node", "id": 7098288535, "lat": 26.911947, "lon": 75.741719}, {"type": "node", "id": 7109218660, "lat": 26.8897928, "lon": 75.7682659}, {"type": "node", "id": 7109218661, "lat": 26.8897855, "lon": 75.7683115}, {"type": "node", "id": 7109218662, "lat": 26.8898945, "lon": 75.7683335}, {"type": "node", "id": 7109218663, "lat": 26.8898635, "lon": 75.7685257}, {"type": "node", "id": 7109218664, "lat": 26.8896071, "lon": 75.7684738}, {"type": "node", "id": 7109218665, "lat": 26.8896201, "lon": 75.7683932}, {"type": "node", "id": 7109218666, "lat": 26.8896407, "lon": 75.7683974}, {"type": "node", "id": 7109218667, "lat": 26.889666, "lon": 75.7682403}, {"type": "node", "id": 7279062535, "lat": 26.9379473, "lon": 75.7948581, "tags": {"addr:district": "Jaipur", "addr:full": "Near Shastri Nagar, Jaipur", "addr:postcode": "302016", "addr:state": "Rajasthan", "amenity": "hospital", "name": "TB Hospital", "source": "OpenGovernmentData"}}, {"type": "node", "id": 7279062612, "lat": 26.928678, "lon": 75.7972582, "tags": {"addr:district": "Jaipur", "addr:full": "Todarmal Marg, Near Shiv Circle, Bani Park, Jaipur", "addr:postcode": "302016", "addr:state": "Rajasthan", "addr:subdistrict": "Jaipur", "amenity": "hospital", "name": "Government Satellite Hospital, Banipark", "source": "OpenGovernmentData"}}, {"type": "node", "id": 7279062646, "lat": 27.140783, "lon": 75.416222, "tags": {"addr:block": "Sambhar", "addr:district": "Jaipur", "addr:full": "Karansar Road, Harsoli", "addr:postcode": "303609", "addr:state": "Rajasthan", "addr:subdistrict": "Phulera (Hq.Sambhar)", "amenity": "hospital", "name": "Government Hospital, Harsoli", "source": "OpenGovernmentData"}}, {"type": "node", "id": 7279084617, "lat": 26.8151992, "lon": 75.5428853, "tags": {"addr:district": "Jaipur", "addr:full": "Link Road, Near Gsss, Bagru", "addr:postcode": "303007", "addr:state": "Rajasthan", "addr:subdistrict": "Sanganer", "amenity": "hospital", "name": "Government Hospital, Bagru", "source": "OpenGovernmentData"}}, {"type": "node", "id": 7279102426, "lat": 26.8819705, "lon": 75.8037007}, {"type": "node", "id": 7279102427, "lat": 26.8823091, "lon": 75.8038076}, {"type": "node", "id": 7279102428, "lat": 26.8823052, "lon": 75.803833}, {"type": "node", "id": 7279102429, "lat": 26.8819473, "lon": 75.8037651}, {"type": "node", "id": 7279102430, "lat": 26.8819574, "lon": 75.8036982}, {"type": "node", "id": 7279102431, "lat": 26.8819838, "lon": 75.8036127}, {"type": "node", "id": 7279102432, "lat": 26.8823534, "lon": 75.803816}, {"type": "node", "id": 7279102433, "lat": 26.8823729, "lon": 75.8036866}, {"type": "node", "id": 7279102570, "lat": 26.9180906, "lon": 75.4661688, "tags": {"addr:block": "Dudu", "addr:district": "Jaipur", "addr:full": "Begas Road Bobas, Bobas", "addr:postcode": "303706", "addr:state": "Rajasthan", "addr:subdistrict": "Mauzamabad", "amenity": "hospital", "name": "Government Hospital, Bobas", "source": "OpenGovernmentData"}}, {"type": "node", "id": 7279102584, "lat": 26.907893, "lon": 75.783374, "tags": {"addr:district": "Jaipur", "addr:full": "Raj Bhavan, Civil Lines, Madrampur, Raj Bhavan Road", "addr:postcode": "302006", "addr:state": "Rajasthan", "addr:subdistrict": "Jaipur", "amenity": "hospital", "name": "Government Homeopathic Centre", "source": "OpenGovernmentData"}}, {"type": "node", "id": 7694895098, "lat": 27.1522057, "lon": 75.7274845, "tags": {"addr:district": "Jaipur", "addr:full": "Jaipur Road, Chomu", "addr:postcode": "303702", "addr:state": "Rajasthan", "amenity": "hospital", "name": "Balaji Mahila & Fertility Hospital", "source": "Local Knowledge"}}, {"type": "node", "id": 7694895131, "lat": 27.1433413, "lon": 75.7289475, "tags": {"addr:district": "Jaipur", "addr:full": "Jaipur Road, Chomu", "addr:postcode": "303702", "addr:state": "Rajasthan", "amenity": "hospital", "name": "Tokas Gastro Hospital", "source": "Local Knowledge"}}, {"type": "node", "id": 7694895141, "lat": 27.146017, "lon": 75.726338, "tags": {"addr:district": "Jaipur", "addr:full": "Chomu", "addr:postcode": "303702", "addr:state": "Rajasthan", "amenity": "hospital", "name": "Choudhary Zenana Hospital", "source": "Local Knowledge"}}, {"type": "node", "id": 7694895158, "lat": 27.149668, "lon": 75.725758, "tags": {"addr:district": "Jaipur", "addr:full": "Jaipur Road, Chomu", "addr:postcode": "303702", "addr:state": "Rajasthan", "amenity": "hospital", "name": "Dr. C M Chopra Hospital and Heart Care Centre", "source": "Local Knowledge"}}, {"type": "node", "id": 7694895166, "lat": 27.150529, "lon": 75.727644, "tags": {"addr:district": "Jaipur", "addr:full": "Chomu", "addr:postcode": "303702", "addr:state": "Rajasthan", "amenity": "hospital", "name": "Bansal Hospital", "source": "Local Knowledge"}}, {"type": "node", "id": 7694995574, "lat": 26.8111712, "lon": 75.5430211, "tags": {"addr:district": "Jaipur", "addr:full": "Ajmer Road, Bagru", "addr:postcode": "303007", "addr:state": "Rajasthan", "amenity": "hospital", "name": "Baby lom Hospital", "source": "Local Knowledge"}}, {"type": "node", "id": 7694995575, "lat": 27.0047778, "lon": 75.7275172, "tags": {"addr:district": "Jaipur", "addr:full": "Benar Road, Jaipur", "addr:postcode": "302012", "addr:state": "Rajasthan", "amenity": "clinic", "name": "Sai Clinic", "source": "Local Knowledge"}}, {"type": "node", "id": 7694995583, "lat": 26.825979, "lon": 75.459802, "tags": {"addr:district": "Jaipur", "addr:full": "Jaipur - Ajmer Express way", "addr:postcode": "303122", "addr:state": "Rajasthan", "amenity": "dentist", "name": "JVWU Dental Hospital", "source": "Local Knowledge"}}, {"type": "node", "id": 7694995585, "lat": 26.8260509, "lon": 75.4628194, "tags": {"addr:district": "Jaipur", "addr:full": "Jaipur Ajmer Express Way, Jharna", "addr:postcode": "303122", "addr:state": "Rajasthan", "amenity": "clinic", "name": "Eye Care Centre", "source": "Local Knowledge"}}, {"type": "node", "id": 7694995591, "lat": 26.8155027, "lon": 75.5433039, "tags": {"addr:district": "Jaipur", "addr:full": "Adarsh Colony, Bagru", "addr:postcode": "303007", "addr:state": "Rajasthan", "amenity": "clinic", "name": "Shree Balaji Clinic", "source": "Local Knowledge"}}, {"type": "node", "id": 7694995595, "lat": 26.9733473, "lon": 75.3847523, "tags": {"addr:district": "Jaipur", "addr:full": "Jaipur, Jobner", "addr:postcode": "303329", "addr:state": "Rajasthan", "amenity": "clinic", "name": "Parik Cilinic", "source": "Local Knowledge"}}, {"type": "node", "id": 7694995596, "lat": 26.8190786, "lon": 75.5435014, "tags": {"addr:district": "Jaipur", "addr:full": "Bagru", "addr:postcode": "303007", "addr:state": "Rajasthan", "amenity": "dentist", "name": "Sandeep Dental Hospital", "source": "Local Knowledge"}}, {"type": "node", "id": 7694995598, "lat": 26.8008059, "lon": 75.772354, "tags": {"addr:district": "Jaipur", "addr:full": "Gurudev Nagar, Sanganer, Jaipur", "addr:postcode": "302029", "addr:state": "Rajasthan", "amenity": "hospital", "name": "Advance Hospital", "source": "Local Knowledge"}}, {"type": "node", "id": 7694995600, "lat": 26.9746823, "lon": 75.3858636, "tags": {"addr:district": "Jaipur", "addr:full": "Jobner", "addr:postcode": "303328", "addr:state": "Rajasthan", "amenity": "dentist", "name": "Dr. Jaypee's Dental Hospital", "source": "Local Knowledge"}}, {"type": "node", "id": 7694995604, "lat": 27.0046063, "lon": 75.7272434, "tags": {"addr:district": "Jaipur", "addr:full": "Benar Road, Boytawala, Jaipur", "addr:postcode": "302012", "addr:state": "Rajasthan", "amenity": "clinic", "name": "Homeopathic Clinic", "source": "Local Knowledge"}}, {"type": "node", "id": 7694995606, "lat": 27.0218008, "lon": 75.7692008, "tags": {"addr:district": "Jaipur", "addr:full": "Sikar Road, Harmada", "addr:postcode": "302013", "addr:state": "Rajasthan", "amenity": "hospital", "name": "Dirghayu Hospital", "source": "Local Knowledge"}}, {"type": "node", "id": 7694995608, "lat": 26.980236, "lon": 75.5260017, "tags": {"addr:district": "Jaipur", "addr:full": "Lalpura", "addr:postcode": "303706", "addr:state": "Rajasthan", "amenity": "clinic", "name": "Krishna Clinic", "source": "Local Knowledge"}}, {"type": "node", "id": 7694995611, "lat": 26.9706329, "lon": 75.3794258, "tags": {"addr:district": "Jaipur", "addr:full": "Jobner", "addr:postcode": "303328", "addr:state": "Rajasthan", "amenity": "clinic", "name": "Radha Swami Clinic", "source": "Local Knowledge"}}, {"type": "node", "id": 7694995617, "lat": 26.9212585, "lon": 75.6561555, "tags": {"addr:district": "Jaipur", "addr:full": "Sirsi Road, Bindayaka", "addr:postcode": "302012", "addr:state": "Rajasthan", "amenity": "hospital", "name": "Raj Girish Hospital", "source": "Local Knowledge"}}, {"type": "node", "id": 7694995627, "lat": 26.8227831, "lon": 75.5445531, "tags": {"addr:district": "Jaipur", "addr:full": "Jaipur", "addr:postcode": "303007", "addr:state": "Rajasthan", "amenity": "dentist", "name": "Shree Nath Dental Hospital", "source": "Local Knowledge"}}, {"type": "node", "id": 7694995630, "lat": 27.0311994, "lon": 75.7665419, "tags": {"addr:district": "Jaipur", "addr:full": "Sikar Road, Nindar", "addr:postcode": "302013", "addr:state": "Rajasthan", "amenity": "clinic", "name": "Lahoti Clinic", "source": "Local Knowledge"}}, {"type": "node", "id": 7694995631, "lat": 26.901157, "lon": 75.621305, "tags": {"addr:district": "Jaipur", "addr:postcode": "303007", "addr:state": "Rajasthan", "amenity": "clinic", "name": "Pareek Clinic", "source": "Local Knowledge"}}, {"type": "node", "id": 7694995633, "lat": 26.9748173, "lon": 75.3919263, "tags": {"addr:district": "Jaipur", "addr:full": "Jaipur", "addr:postcode": "303328", "addr:state": "Rajasthan", "amenity": "hospital", "name": "J K Hospital", "source": "Local Knowledge"}}, {"type": "node", "id": 7694995638, "lat": 26.808034, "lon": 75.5423741, "tags": {"addr:district": "Jaipur", "addr:full": "Bagru", "addr:postcode": "303007", "addr:state": "Rajasthan", "amenity": "clinic", "name": "Sharma Homeopathic Clinic", "source": "Local Knowledge"}}, {"type": "node", "id": 7694995643, "lat": 27.0215096, "lon": 75.7699933, "tags": {"addr:district": "Jaipur", "addr:full": "Sikar Road, Harmada", "addr:postcode": "302013", "addr:state": "Rajasthan", "amenity": "clinic", "name": "Shubham Clinic & Research Centre", "source": "Local Knowledge"}}, {"type": "node", "id": 7694995646, "lat": 26.8085604, "lon": 75.5538166, "tags": {"addr:district": "Jaipur", "addr:full": "Bagru", "addr:postcode": "303007", "addr:state": "Rajasthan", "amenity": "clinic", "name": "Namo Clinic", "source": "Local Knowledge"}}, {"type": "node", "id": 7694995650, "lat": 26.8241018, "lon": 75.5440801, "tags": {"addr:district": "Jaipur", "addr:full": "Begus Road, Bagru", "addr:postcode": "303007", "addr:state": "Rajasthan", "amenity": "clinic", "name": "Shri Shidhi Clinic", "source": "Local Knowledge"}}, {"type": "node", "id": 7694995654, "lat": 27.001808, "lon": 75.73507, "tags": {"addr:district": "Jaipur", "addr:full": "Ridhi Sidhi Nagar", "addr:postcode": "302012", "addr:state": "Rajasthan", "amenity": "clinic", "name": "Ansari Clinic", "source": "Local Knowledge"}}, {"type": "node", "id": 7694995657, "lat": 26.8087639, "lon": 75.5539884, "tags": {"addr:district": "Jaipur", "addr:full": "Bagru", "addr:postcode": "303007", "addr:state": "Rajasthan", "amenity": "clinic", "name": "Khushi Homoeopathic Clinic", "source": "Local Knowledge"}}, {"type": "node", "id": 7694995663, "lat": 26.8166904, "lon": 75.5441492, "tags": {"addr:district": "Jaipur", "addr:full": "Adarsh Colony, Bagru", "addr:postcode": "303007", "addr:state": "Rajasthan", "amenity": "hospital", "name": "Balaji Homoeopathic Clinic", "source": "Local Knowledge"}}, {"type": "node", "id": 7694995666, "lat": 26.9794693, "lon": 75.3858131, "tags": {"addr:district": "Jaipur", "addr:full": "Renwal Road, Jobner", "addr:postcode": "303328", "addr:state": "Rajasthan", "amenity": "dentist", "name": "Shree General & Dental Hospital", "source": "Local Knowledge"}}, {"type": "node", "id": 7694995668, "lat": 26.8230982, "lon": 75.5431674, "tags": {"addr:district": "Jaipur", "addr:full": "Jaipur", "addr:postcode": "303007", "addr:state": "Rajasthan", "amenity": "dentist", "name": "Balaji Dental Hospital", "source": "Local Knowledge"}}, {"type": "node", "id": 7695122977, "lat": 26.84096, "lon": 75.7410141, "tags": {"addr:district": "Jaipur", "addr:full": "Mansarovar", "addr:postcode": "302020", "addr:state": "Rajasthan", "amenity": "dentist", "name": "Bliss Dental Care", "source": "Local Knowledge"}}, {"type": "node", "id": 7695122978, "lat": 26.8286978, "lon": 75.7721533, "tags": {"addr:district": "Jaipur", "addr:full": "Mansarover", "addr:postcode": "302020", "addr:state": "Rajasthan", "amenity": "clinic", "name": "Aarogya Clinic", "source": "Local Knowledge"}}, {"type": "node", "id": 7695122979, "lat": 26.858647, "lon": 75.720417, "tags": {"addr:district": "Jaipur", "addr:full": "Narayan Vihar, Jaipur", "addr:postcode": "302020", "addr:state": "Rajasthan", "amenity": "hospital", "name": "Swastik Hospital and Research Centre", "source": "Local Knowledge"}}, {"type": "node", "id": 7695122982, "lat": 26.8722687, "lon": 75.8221382, "tags": {"addr:district": "Jaipur", "addr:full": "Dayanand Nagar, Someshwarpuri", "addr:postcode": "302004", "addr:state": "Rajasthan", "amenity": "clinic", "name": "Namo Clinic", "source": "Local Knowledge"}}, {"type": "node", "id": 7695122983, "lat": 26.8353154, "lon": 75.8243957, "tags": {"addr:district": "Jaipur", "addr:full": "Prem Nagar, Malviya Nagar, Nandpuri Colony", "addr:postcode": "302017", "addr:state": "Rajasthan", "amenity": "hospital", "name": "Trilok Nursing Home", "source": "Local Knowledge"}}, {"type": "node", "id": 7695122984, "lat": 26.828907, "lon": 75.774746, "tags": {"addr:district": "Jaipur", "addr:full": "Kalyanpura, Mansarovar, Jaipur", "addr:postcode": "302020", "addr:state": "Rajasthan", "amenity": "clinic", "name": "Abhi Clinic", "source": "Local Knowledge"}}, {"type": "node", "id": 7695122985, "lat": 26.8213877, "lon": 75.7695767, "tags": {"addr:district": "Jaipur", "addr:full": "Kalyanpura Road, Sanganer", "addr:postcode": "302020", "addr:state": "Rajasthan", "amenity": "clinic", "name": "Shikha Clinic", "source": "Local Knowledge"}}, {"type": "node", "id": 7695122987, "lat": 26.8007023, "lon": 75.7981156, "tags": {"addr:district": "Jaipur", "addr:full": "Sanganer, Bambala", "addr:postcode": "302033", "addr:state": "Rajasthan", "amenity": "clinic", "name": "Nadeem Clinic", "source": "Local Knowledge"}}, {"type": "node", "id": 7695122988, "lat": 26.8714206, "lon": 75.6941725, "tags": {"addr:district": "Jaipur", "addr:full": "Ajmer Road, Bhakrota", "addr:postcode": "302026", "addr:state": "Rajasthan", "amenity": "hospital", "name": "Garg Child Hospital", "source": "Local Knowledge"}}, {"type": "node", "id": 7695122990, "lat": 26.8387753, "lon": 75.7356265, "tags": {"addr:district": "Jaipur", "addr:full": "Patarkar Colony, Dholai", "addr:postcode": "302029", "addr:state": "Rajasthan", "amenity": "clinic", "name": "Mathur Multispeciality Clinic", "source": "Local Knowledge"}}, {"type": "node", "id": 7695122992, "lat": 26.8242631, "lon": 75.777936, "tags": {"addr:district": "Jaipur", "addr:full": "Katewa Nagar, Dada Gurudev Nagar", "addr:postcode": "302029", "addr:state": "Rajasthan", "amenity": "hospital", "name": "Madhu Hospital", "source": "Local Knowledge"}}, {"type": "node", "id": 7695122993, "lat": 26.8065013, "lon": 75.8036489, "tags": {"addr:district": "Jaipur", "addr:full": "Sanganer, Pratap Nagar", "addr:postcode": "302033", "addr:state": "Rajasthan", "amenity": "clinic", "name": "Take Care Clinic", "source": "Local Knowledge"}}, {"type": "node", "id": 7695122994, "lat": 26.819886, "lon": 75.754734, "tags": {"addr:district": "Jaipur", "addr:full": "Hajiwala", "addr:postcode": "302029", "addr:state": "Rajasthan", "amenity": "clinic", "name": "DIVA Women Clinic", "source": "Local Knowledge"}},