{"version": 0.6, "generator": "Overpass API 0.7.61.5 4133829e", "osm3s": {"timestamp_osm_base": "2024-02-25T09:34:44Z", "copyright": "The data included in this document is from www.openstreetmap.org. The data is made available under ODbL."}, "elements": [{"type": "node", "id": 7716640292, "lat": 26.7063431, "lon": 80.747885, "tags": {"name": "Harauni", "network": "IR", "operator": "NR", "public_transport": "station", "railway": "station", "ref": "HRN", "wikidata": "Q63370255"}}, {"type": "node", "id": 7716640312, "lat": 26.7418222, "lon": 80.7968152, "tags": {"name": "Piparsand", "network": "IR", "operator": "NR", "public_transport": "station", "railway": "station", "ref": "POF", "wikidata": "Q63370257"}}, {"type": "node", "id": 7716649884, "lat": 26.7742875, "lon": 80.8414257, "tags": {"name": "Amausi", "network": "IR", "operator": "NR", "railway": "station", "ref": "AMS", "wikidata": "Q12414051", "wikipedia": "en:Amausi railway station"}}, {"type": "node", "id": 8001538669, "lat": 26.7662824, "lon": 80.8836391, "tags": {"alt_name": "CCS Airport", "name": "Chaudhary Charan Singh International Airport", "name:hi": "\u091a\u094c\u0927\u0930\u0940 \u091a\u0930\u0923 \u0938\u093f\u0902\u0939 \u0905\u0902\u0924\u0930\u0930\u093e\u0937\u094d\u091f\u094d\u0930\u0940\u092f \u0939\u0935\u093e\u0908 \u0905\u0921\u094d\u0921\u093e", "network": "Lucknow Metro", "note": "Contributors are requested to not edit the \"network\" and the \"operator\" tags. (2023/11/08)", "operator": "Lucknow Metro Rail Corporation Limited", "public_transport": "station", "railway": "station", "station": "subway", "subway": "yes", "wikidata": "Q20861591", "wikipedia": "en:Chaudhary Charan Singh International Airport metro station"}}, {"type": "node", "id": 8006089161, "lat": 26.777877, "lon": 80.8826512, "tags": {"name": "Transport Nagar", "name:hi": "\u091f\u094d\u0930\u093e\u0902\u0938\u092a\u094b\u0930\u094d\u091f \u0928\u0917\u0930", "network": "Lucknow Metro", "note": "Contributors are requested to not edit the \"network\" and the \"operator\" tags. (2023/11/08)", "operator": "Lucknow Metro Rail Corporation Limited", "public_transport": "station", "railway": "station", "station": "subway", "subway": "yes", "wikidata": "Q17123999", "wikipedia": "en:Transport Nagar metro station"}}, {"type": "node", "id": 8006089162, "lat": 26.7713636, "lon": 80.8786976, "tags": {"name": "Amausi", "name:hi": "\u0905\u092e\u094c\u0938\u0940", "network": "Lucknow Metro", "note": "Contributors are requested to not edit the \"network\" and the \"operator\" tags. (2023/11/08)", "operator": "Lucknow Metro Rail Corporation Limited", "public_transport": "station", "railway": "station", "station": "subway", "subway": "yes", "wikidata": "Q17049249", "wikipedia": "en:Amausi metro station"}}]}