{"version": 0.6, "generator": "Overpass API 0.7.61.5 4133829e", "osm3s": {"timestamp_osm_base": "2024-02-25T09:45:57Z", "copyright": "The data included in this document is from www.openstreetmap.org. The data is made available under ODbL."}, "elements": [{"type": "node", "id": 316683309, "lat": 27.2403553, "lon": 75.6461932, "tags": {"internet_access": "no", "name": "Govindgarh Malikpur", "network": "IR", "operator": "NWR", "public_transport": "station", "railway": "station", "ref": "GND", "train": "yes", "wikidata": "Q63357909"}}, {"type": "node", "id": 811361700, "lat": 27.3731541, "lon": 75.5632086, "tags": {"internet_access": "no", "name": "Ringas Junction", "network": "IR", "operator": "NWR", "public_transport": "station", "railway": "station", "ref": "RGS", "train": "yes", "wikidata": "Q24948808", "wikipedia": "en:Ringas Junction railway station"}}, {"type": "node", "id": 1947132905, "lat": 27.2514115, "lon": 75.4508709, "tags": {"internet_access": "no", "name": "Badhal", "network": "IR", "operator": "NWR", "public_transport": "station", "railway": "station", "ref": "BDHL", "train": "yes", "wikidata": "Q25549056"}}, {"type": "node", "id": 1947132920, "lat": 27.3008755, "lon": 75.5066823, "tags": {"internet_access": "no", "name": "Kishan Manpura", "network": "IR", "operator": "NWR", "public_transport": "station", "railway": "station", "ref": "KMNP", "train": "yes", "wikidata": "Q63355216"}}, {"type": "node", "id": 1947132930, "lat": 27.2062262, "lon": 75.394925, "tags": {"internet_access": "no", "name": "Pachar Malikpura", "network": "IR", "operator": "NWR", "public_transport": "station", "railway": "station", "ref": "PCMK", "train": "yes", "wikidata": "Q63360889"}}, {"type": "node", "id": 1947145035, "lat": 27.4579824, "lon": 75.5981933, "tags": {"internet_access": "no", "name": "Shri Madhopur", "network": "IR", "operator": "NWR", "public_transport": "station", "railway": "station", "ref": "SMPR", "train": "yes", "wikidata": "Q62004797"}}, {"type": "node", "id": 1947684374, "lat": 27.3060115, "lon": 75.5893625, "tags": {"internet_access": "no", "name": "Chhota Gudha", "network": "IR", "operator": "NWR", "public_transport": "station", "railway": "station", "ref": "COD", "train": "yes", "wikidata": "Q31291979"}}, {"type": "node", "id": 1947684375, "lat": 27.1579315, "lon": 75.7027898, "tags": {"internet_access": "no", "name": "Chomun Samod", "network": "IR", "operator": "NWR", "public_transport": "station", "railway": "station", "ref": "COM", "train": "yes", "wikidata": "Q31292338"}}, {"type": "node", "id": 1947684376, "lat": 27.1999642, "lon": 75.6765793, "tags": {"internet_access": "no", "name": "Loharwara", "network": "IR", "operator": "NWR", "public_transport": "station", "railway": "station", "ref": "LHW", "train": "yes", "wikidata": "Q63356639"}}]}