{"version": 0.6, "generator": "Overpass API 0.7.61.5 4133829e", "osm3s": {"timestamp_osm_base": "2024-02-25T09:11:15Z", "copyright": "The data included in this document is from www.openstreetmap.org. The data is made available under ODbL."}, "elements": [{"type": "node", "id": 4456612193, "lat": 22.5763346, "lon": 71.8485038, "tags": {"amenity": "fuel", "name": "Bharat petroleum", "name:en": "Bharat petroleum"}}, {"type": "node", "id": 4456612391, "lat": 22.5745291, "lon": 71.8517836, "tags": {"amenity": "fuel", "brand": "Indian Oil", "brand:wikidata": "Q1289348", "brand:wikipedia": "en:Indian Oil Corporation", "name": "Indian petroleum", "name:en": "Indian petroleum"}}, {"type": "node", "id": 4456612491, "lat": 22.5747458, "lon": 71.8575066, "tags": {"amenity": "fuel", "brand": "Indian Oil", "brand:wikidata": "Q1289348", "brand:wikipedia": "en:Indian Oil Corporation", "name": "Indian oil", "name:en": "Indian oil"}}, {"type": "node", "id": 8229696178, "lat": 22.4695684, "lon": 71.8515775, "tags": {"amenity": "fuel", "name": "Bharat Petrolium"}}, {"type": "node", "id": 8229721821, "lat": 22.3942125, "lon": 71.9812021, "tags": {"amenity": "fuel", "brand": "Indian Oil", "brand:wikidata": "Q1289348", "brand:wikipedia": "en:Indian Oil Corporation", "name": "Indian Oil"}}, {"type": "node", "id": 8229740157, "lat": 22.3868901, "lon": 71.9786842, "tags": {"amenity": "fuel", "name": "Reliance"}}]}