{"version": 0.6, "generator": "Overpass API 0.7.61.5 4133829e", "osm3s": {"timestamp_osm_base": "2024-02-25T09:46:55Z", "copyright": "The data included in this document is from www.openstreetmap.org. The data is made available under ODbL."}, "elements": [{"type": "node", "id": 3900410901, "lat": 26.8090198, "lon": 75.8449679}, {"type": "node", "id": 3900410904, "lat": 26.8090564, "lon": 75.8450906}, {"type": "node", "id": 3900410908, "lat": 26.8090711, "lon": 75.8449487}, {"type": "node", "id": 3900410911, "lat": 26.8091077, "lon": 75.8450714}, {"type": "node", "id": 6728959769, "lat": 26.9350377, "lon": 75.9231968}, {"type": "node", "id": 6728982970, "lat": 26.9356935, "lon": 75.9220851}, {"type": "node", "id": 6728982971, "lat": 26.9356821, "lon": 75.9231505}, {"type": "node", "id": 6728982972, "lat": 26.9349826, "lon": 75.9221298}, {"type": "node", "id": 8199040148, "lat": 26.8598648, "lon": 76.1027453}, {"type": "node", "id": 8199040149, "lat": 26.8595369, "lon": 76.1027146}, {"type": "node", "id": 8199040150, "lat": 26.8595231, "lon": 76.1028994}, {"type": "node", "id": 8199040151, "lat": 26.859851, "lon": 76.1029302}, {"type": "node", "id": 8837186264, "lat": 26.8368214, "lon": 75.8733696}, {"type": "node", "id": 8837186265, "lat": 26.8367708, "lon": 75.8733711}, {"type": "node", "id": 8837186266, "lat": 26.8367695, "lon": 75.8734343}, {"type": "node", "id": 8837186267, "lat": 26.8368246, "lon": 75.873435}, {"type": "way", "id": 386686260, "nodes": [3900410908, 3900410901, 3900410904, 3900410911, 3900410908], "tags": {"addr:city": "Jaipur", "addr:housenumber": "263/845", "addr:postcode": "302033", "addr:street": "Sector 26, Sanganer, Pratap Nagar", "building": "commercial", "description": "W3Care Technologies is IT Company based in India and found in 2010. W3Care has been providing best website development, extension and maintenance services to its clients. We have expertise in Web development and provide development services.", "email": "business@w3care.in", "name": "W3care Technologies", "website": "https://www.w3care.com/"}}, {"type": "way", "id": 716051408, "nodes": [6728982970, 6728982971, 6728959769, 6728982972, 6728982970], "tags": {"addr:city": "Jaipur", "addr:housenumber": "Adcads", "addr:postcode": "302031", "addr:street": "LNMIIT", "amenity": "university", "building": "commercial", "building:levels": "2", "name": "LNMIIT Academics", "smoking": "no"}}, {"type": "way", "id": 881616637, "nodes": [8199040148, 8199040149, 8199040150, 8199040151, 8199040148], "tags": {"building": "office"}}, {"type": "way", "id": 954768706, "nodes": [8837186264, 8837186265, 8837186266, 8837186267, 8837186264], "tags": {"building": "commercial", "building:levels": "1", "name": "STATIONARY", "smoking": "separated"}}]}